[{"code": "110101", "longi": 116.416357, "lati": 39.928353, "county": "东城", "city": "", "province": "北京"}, {"code": "110102", "longi": 116.365868, "lati": 39.912289, "county": "西城", "city": "", "province": "北京"}, {"code": "110105", "longi": 116.443108, "lati": 39.92147, "county": "朝阳", "city": "", "province": "北京"}, {"code": "110106", "longi": 116.287149, "lati": 39.858427, "county": "丰台", "city": "", "province": "北京"}, {"code": "110107", "longi": 116.222982, "lati": 39.906611, "county": "石景山", "city": "", "province": "北京"}, {"code": "110108", "longi": 116.298056, "lati": 39.959912, "county": "海淀", "city": "", "province": "北京"}, {"code": "110109", "longi": 116.102009, "lati": 39.940646, "county": "门头沟", "city": "", "province": "北京"}, {"code": "110111", "longi": 116.143267, "lati": 39.749144, "county": "房山", "city": "", "province": "北京"}, {"code": "110112", "longi": 116.656435, "lati": 39.909946, "county": "通州", "city": "", "province": "北京"}, {"code": "110113", "longi": 116.654651, "lati": 40.130347, "county": "顺义", "city": "", "province": "北京"}, {"code": "110114", "longi": 116.231204, "lati": 40.22066, "county": "昌平", "city": "", "province": "北京"}, {"code": "110115", "longi": 116.341395, "lati": 39.726929, "county": "大兴", "city": "", "province": "北京"}, {"code": "110116", "longi": 116.642349, "lati": 40.315704, "county": "怀柔", "city": "", "province": "北京"}, {"code": "110117", "longi": 117.121383, "lati": 40.140701, "county": "平谷", "city": "", "province": "北京"}, {"code": "110228", "longi": 116.801346, "lati": 40.35874, "county": "密云", "city": "", "province": "北京"}, {"code": "110229", "longi": 115.974848, "lati": 40.456951, "county": "延庆", "city": "", "province": "北京"}, {"code": "120101", "longi": 117.21451, "lati": 39.116949, "county": "和平", "city": "", "province": "天津"}, {"code": "120102", "longi": 117.251587, "lati": 39.128291, "county": "河东", "city": "", "province": "天津"}, {"code": "120103", "longi": 117.223372, "lati": 39.109563, "county": "河西", "city": "", "province": "天津"}, {"code": "120104", "longi": 117.150738, "lati": 39.138203, "county": "南开", "city": "", "province": "天津"}, {"code": "120105", "longi": 117.196648, "lati": 39.147869, "county": "河北", "city": "", "province": "天津"}, {"code": "120106", "longi": 117.151533, "lati": 39.167345, "county": "红桥", "city": "", "province": "天津"}, {"code": "120110", "longi": 117.314324, "lati": 39.086569, "county": "东丽", "city": "", "province": "天津"}, {"code": "120111", "longi": 117.008827, "lati": 39.141152, "county": "西青", "city": "", "province": "天津"}, {"code": "120112", "longi": 117.35726, "lati": 38.937928, "county": "津南", "city": "", "province": "天津"}, {"code": "120113", "longi": 117.135488, "lati": 39.224792, "county": "北辰", "city": "", "province": "天津"}, {"code": "120114", "longi": 117.044388, "lati": 39.384119, "county": "武清", "city": "", "province": "天津"}, {"code": "120115", "longi": 117.309863, "lati": 39.717379, "county": "宝坻", "city": "", "province": "天津"}, {"code": "120116", "longi": 117.710496, "lati": 39.00366, "county": "滨海新", "city": "", "province": "天津"}, {"code": "120117", "longi": 117.826625, "lati": 39.329858, "county": "宁河", "city": "", "province": "天津"}, {"code": "120118", "longi": 116.97413, "lati": 38.947512, "county": "静海", "city": "", "province": "天津"}, {"code": "120225", "longi": 117.408306, "lati": 40.046061, "county": "蓟", "city": "", "province": "天津"}, {"code": "130102", "longi": 114.53906, "lati": 38.036654, "county": "长安区", "city": "石家庄", "province": "河北"}, {"code": "130104", "longi": 114.461154, "lati": 38.004043, "county": "桥西区", "city": "石家庄", "province": "河北"}, {"code": "130105", "longi": 114.463347, "lati": 38.05106, "county": "新华区", "city": "石家庄", "province": "河北"}, {"code": "130107", "longi": 114.51486, "lati": 38.042307, "county": "井陉矿区", "city": "石家庄", "province": "河北"}, {"code": "130108", "longi": 114.531362, "lati": 38.006453, "county": "裕华区", "city": "石家庄", "province": "河北"}, {"code": "130109", "longi": 114.847075, "lati": 38.021567, "county": "藁城区", "city": "石家庄", "province": "河北"}, {"code": "130110", "longi": 114.313724, "lati": 38.085958, "county": "鹿泉区", "city": "石家庄", "province": "河北"}, {"code": "130111", "longi": 114.648318, "lati": 37.9002, "county": "栾城区", "city": "石家庄", "province": "河北"}, {"code": "130121", "longi": 114.14524, "lati": 38.032148, "county": "井陉县", "city": "石家庄", "province": "河北"}, {"code": "130123", "longi": 114.570941, "lati": 38.146445, "county": "正定县", "city": "石家庄", "province": "河北"}, {"code": "130125", "longi": 114.552692, "lati": 38.438411, "county": "行唐县", "city": "石家庄", "province": "河北"}, {"code": "130126", "longi": 114.382645, "lati": 38.308628, "county": "灵寿县", "city": "石家庄", "province": "河北"}, {"code": "130127", "longi": 114.611433, "lati": 37.615159, "county": "高邑县", "city": "石家庄", "province": "河北"}, {"code": "130128", "longi": 115.20091, "lati": 38.184072, "county": "深泽县", "city": "石家庄", "province": "河北"}, {"code": "130129", "longi": 114.386155, "lati": 37.665576, "county": "赞皇县", "city": "石家庄", "province": "河北"}, {"code": "130130", "longi": 114.976337, "lati": 38.179141, "county": "无极县", "city": "石家庄", "province": "河北"}, {"code": "130131", "longi": 114.199134, "lati": 38.247144, "county": "平山县", "city": "石家庄", "province": "河北"}, {"code": "130132", "longi": 114.52558, "lati": 37.766651, "county": "元氏县", "city": "石家庄", "province": "河北"}, {"code": "130133", "longi": 114.776185, "lati": 37.75643, "county": "赵县", "city": "石家庄", "province": "河北"}, {"code": "130183", "longi": 115.044185, "lati": 38.033629, "county": "晋州市", "city": "石家庄", "province": "河北"}, {"code": "130184", "longi": 114.684014, "lati": 38.343296, "county": "新乐市", "city": "石家庄", "province": "河北"}, {"code": "130202", "longi": 118.154354, "lati": 39.625059, "county": "路南区", "city": "唐山", "province": "河北"}, {"code": "130203", "longi": 118.200692, "lati": 39.624437, "county": "路北区", "city": "唐山", "province": "河北"}, {"code": "130204", "longi": 118.447635, "lati": 39.733578, "county": "古冶区", "city": "唐山", "province": "河北"}, {"code": "130205", "longi": 118.261842, "lati": 39.671001, "county": "开平区", "city": "唐山", "province": "河北"}, {"code": "130207", "longi": 118.085169, "lati": 39.576031, "county": "丰南区", "city": "唐山", "province": "河北"}, {"code": "130208", "longi": 118.162216, "lati": 39.832582, "county": "丰润区", "city": "唐山", "province": "河北"}, {"code": "130209", "longi": 118.460379, "lati": 39.27307, "county": "曹妃甸区", "city": "唐山", "province": "河北"}, {"code": "130223", "longi": 118.703598, "lati": 39.740593, "county": "滦县", "city": "唐山", "province": "河北"}, {"code": "130224", "longi": 118.682379, "lati": 39.518997, "county": "滦南县", "city": "唐山", "province": "河北"}, {"code": "130225", "longi": 118.912571, "lati": 39.425608, "county": "乐亭县", "city": "唐山", "province": "河北"}, {"code": "130227", "longi": 118.314715, "lati": 40.1415, "county": "迁西县", "city": "唐山", "province": "河北"}, {"code": "130229", "longi": 117.738658, "lati": 39.900401, "county": "玉田县", "city": "唐山", "province": "河北"}, {"code": "130281", "longi": 117.965892, "lati": 40.189202, "county": "遵化市", "city": "唐山", "province": "河北"}, {"code": "130283", "longi": 118.701144, "lati": 39.999175, "county": "迁安市", "city": "唐山", "province": "河北"}, {"code": "130302", "longi": 119.564962, "lati": 39.94756, "county": "海港区", "city": "秦皇岛", "province": "河北"}, {"code": "130303", "longi": 119.775799, "lati": 39.978849, "county": "山海关区", "city": "秦皇岛", "province": "河北"}, {"code": "130304", "longi": 119.488914, "lati": 39.834751, "county": "北戴河区", "city": "秦皇岛", "province": "河北"}, {"code": "130306", "longi": 119.244848, "lati": 39.876254, "county": "抚宁区", "city": "秦皇岛", "province": "河北"}, {"code": "130321", "longi": 118.949684, "lati": 40.407578, "county": "青龙满族自治县", "city": "秦皇岛", "province": "河北"}, {"code": "130322", "longi": 119.162694, "lati": 39.712813, "county": "昌黎县", "city": "秦皇岛", "province": "河北"}, {"code": "130324", "longi": 118.892986, "lati": 39.891947, "county": "卢龙县", "city": "秦皇岛", "province": "河北"}, {"code": "130402", "longi": 114.490431, "lati": 36.580358, "county": "邯山区", "city": "邯郸", "province": "河北"}, {"code": "130403", "longi": 114.492897, "lati": 36.63641, "county": "丛台区", "city": "邯郸", "province": "河北"}, {"code": "130404", "longi": 114.462058, "lati": 36.639022, "county": "复兴区", "city": "邯郸", "province": "河北"}, {"code": "130406", "longi": 114.538962, "lati": 36.625657, "county": "峰峰矿区", "city": "邯郸", "province": "河北"}, {"code": "130421", "longi": 114.530925, "lati": 36.593881, "county": "邯郸县", "city": "邯郸", "province": "河北"}, {"code": "130423", "longi": 114.619536, "lati": 36.335026, "county": "临漳县", "city": "邯郸", "province": "河北"}, {"code": "130424", "longi": 114.670032, "lati": 36.444317, "county": "成安县", "city": "邯郸", "province": "河北"}, {"code": "130425", "longi": 115.147814, "lati": 36.285616, "county": "大名县", "city": "邯郸", "province": "河北"}, {"code": "130426", "longi": 113.691401, "lati": 36.584995, "county": "涉县", "city": "邯郸", "province": "河北"}, {"code": "130427", "longi": 114.373947, "lati": 36.374012, "county": "磁县", "city": "邯郸", "province": "河北"}, {"code": "130428", "longi": 114.800166, "lati": 36.548132, "county": "肥乡县", "city": "邯郸", "province": "河北"}, {"code": "130429", "longi": 114.491052, "lati": 36.77774, "county": "永年县", "city": "邯郸", "province": "河北"}, {"code": "130430", "longi": 115.186792, "lati": 36.811133, "county": "邱县", "city": "邯郸", "province": "河北"}, {"code": "130431", "longi": 114.878299, "lati": 36.92035, "county": "鸡泽县", "city": "邯郸", "province": "河北"}, {"code": "130432", "longi": 114.948607, "lati": 36.483484, "county": "广平县", "city": "邯郸", "province": "河北"}, {"code": "130433", "longi": 115.282468, "lati": 36.547557, "county": "馆陶县", "city": "邯郸", "province": "河北"}, {"code": "130434", "longi": 114.938921, "lati": 36.359869, "county": "魏县", "city": "邯郸", "province": "河北"}, {"code": "130435", "longi": 114.945113, "lati": 36.780175, "county": "曲周县", "city": "邯郸", "province": "河北"}, {"code": "130481", "longi": 114.203697, "lati": 36.696506, "county": "武安市", "city": "邯郸", "province": "河北"}, {"code": "130502", "longi": 114.507254, "lati": 37.068017, "county": "桥东区", "city": "邢台", "province": "河北"}, {"code": "130503", "longi": 114.468435, "lati": 37.059882, "county": "桥西区", "city": "邢台", "province": "河北"}, {"code": "130521", "longi": 114.561132, "lati": 37.05073, "county": "邢台县", "city": "邢台", "province": "河北"}, {"code": "130522", "longi": 114.498762, "lati": 37.444499, "county": "临城县", "city": "邢台", "province": "河北"}, {"code": "130523", "longi": 114.512128, "lati": 37.286669, "county": "内丘县", "city": "邢台", "province": "河北"}, {"code": "130524", "longi": 114.693426, "lati": 37.482423, "county": "柏乡县", "city": "邢台", "province": "河北"}, {"code": "130525", "longi": 114.770419, "lati": 37.350173, "county": "隆尧县", "city": "邢台", "province": "河北"}, {"code": "130526", "longi": 114.671936, "lati": 37.120983, "county": "任县", "city": "邢台", "province": "河北"}, {"code": "130527", "longi": 114.683762, "lati": 37.005041, "county": "南和县", "city": "邢台", "province": "河北"}, {"code": "130528", "longi": 114.919301, "lati": 37.619886, "county": "宁晋县", "city": "邢台", "province": "河北"}, {"code": "130529", "longi": 115.037478, "lati": 37.221112, "county": "巨鹿县", "city": "邢台", "province": "河北"}, {"code": "130530", "longi": 115.24207, "lati": 37.528719, "county": "新河县", "city": "邢台", "province": "河北"}, {"code": "130531", "longi": 115.142607, "lati": 37.07466, "county": "广宗县", "city": "邢台", "province": "河北"}, {"code": "130532", "longi": 115.030076, "lati": 37.063148, "county": "平乡县", "city": "邢台", "province": "河北"}, {"code": "130533", "longi": 115.26678, "lati": 36.975377, "county": "威县", "city": "邢台", "province": "河北"}, {"code": "130534", "longi": 115.667209, "lati": 37.039991, "county": "清河县", "city": "邢台", "province": "河北"}, {"code": "130535", "longi": 115.501048, "lati": 36.870813, "county": "临西县", "city": "邢台", "province": "河北"}, {"code": "130581", "longi": 115.408748, "lati": 37.359264, "county": "南宫市", "city": "邢台", "province": "河北"}, {"code": "130582", "longi": 114.503335, "lati": 36.854922, "county": "沙河市", "city": "邢台", "province": "河北"}, {"code": "130602", "longi": 115.458669, "lati": 38.877561, "county": "竞秀区", "city": "保定", "province": "河北"}, {"code": "130606", "longi": 115.497342, "lati": 38.883209, "county": "莲池区", "city": "保定", "province": "河北"}, {"code": "130607", "longi": 115.322351, "lati": 38.948955, "county": "满城区", "city": "保定", "province": "河北"}, {"code": "130608", "longi": 115.489968, "lati": 38.765041, "county": "清苑区", "city": "保定", "province": "河北"}, {"code": "130609", "longi": 115.655862, "lati": 39.018547, "county": "徐水区", "city": "保定", "province": "河北"}, {"code": "130623", "longi": 115.713905, "lati": 39.394317, "county": "涞水县", "city": "保定", "province": "河北"}, {"code": "130624", "longi": 114.195104, "lati": 38.849152, "county": "阜平县", "city": "保定", "province": "河北"}, {"code": "130626", "longi": 115.808175, "lati": 39.263018, "county": "定兴县", "city": "保定", "province": "河北"}, {"code": "130627", "longi": 114.982972, "lati": 38.748204, "county": "唐县", "city": "保定", "province": "河北"}, {"code": "130628", "longi": 115.778965, "lati": 38.700088, "county": "高阳县", "city": "保定", "province": "河北"}, {"code": "130629", "longi": 115.861657, "lati": 39.042784, "county": "容城县", "city": "保定", "province": "河北"}, {"code": "130630", "longi": 114.694284, "lati": 39.360247, "county": "涞源县", "city": "保定", "province": "河北"}, {"code": "130631", "longi": 115.154511, "lati": 38.695736, "county": "望都县", "city": "保定", "province": "河北"}, {"code": "130632", "longi": 115.935603, "lati": 38.935369, "county": "安新县", "city": "保定", "province": "河北"}, {"code": "130633", "longi": 115.497457, "lati": 39.349393, "county": "易县", "city": "保定", "province": "河北"}, {"code": "130634", "longi": 114.744926, "lati": 38.622244, "county": "曲阳县", "city": "保定", "province": "河北"}, {"code": "130635", "longi": 115.583855, "lati": 38.488056, "county": "蠡县", "city": "保定", "province": "河北"}, {"code": "130636", "longi": 115.13547, "lati": 38.837487, "county": "顺平县", "city": "保定", "province": "河北"}, {"code": "130637", "longi": 115.46438, "lati": 38.457364, "county": "博野县", "city": "保定", "province": "河北"}, {"code": "130638", "longi": 116.10865, "lati": 38.99455, "county": "雄县", "city": "保定", "province": "河北"}, {"code": "130681", "longi": 115.974422, "lati": 39.485283, "county": "涿州市", "city": "保定", "province": "河北"}, {"code": "130683", "longi": 115.326647, "lati": 38.41844, "county": "安国市", "city": "保定", "province": "河北"}, {"code": "130684", "longi": 115.873758, "lati": 39.326521, "county": "高碑店市", "city": "保定", "province": "河北"}, {"code": "130702", "longi": 114.894341, "lati": 40.788457, "county": "桥东区", "city": "张家口", "province": "河北"}, {"code": "130703", "longi": 114.869407, "lati": 40.819564, "county": "桥西区", "city": "张家口", "province": "河北"}, {"code": "130705", "longi": 115.03308, "lati": 40.562211, "county": "宣化区", "city": "张家口", "province": "河北"}, {"code": "130706", "longi": 115.287352, "lati": 40.502652, "county": "下花园区", "city": "张家口", "province": "河北"}, {"code": "130721", "longi": 114.887543, "lati": 40.824418, "county": "宣化县", "city": "张家口", "province": "河北"}, {"code": "130722", "longi": 114.720086, "lati": 41.158557, "county": "张北县", "city": "张家口", "province": "河北"}, {"code": "130723", "longi": 114.600404, "lati": 41.852368, "county": "康保县", "city": "张家口", "province": "河北"}, {"code": "130724", "longi": 115.688692, "lati": 41.669668, "county": "沽源县", "city": "张家口", "province": "河北"}, {"code": "130725", "longi": 113.969619, "lati": 41.076227, "county": "尚义县", "city": "张家口", "province": "河北"}, {"code": "130726", "longi": 114.588903, "lati": 39.840843, "county": "蔚县", "city": "张家口", "province": "河北"}, {"code": "130727", "longi": 114.150388, "lati": 40.103742, "county": "阳原县", "city": "张家口", "province": "河北"}, {"code": "130728", "longi": 114.385791, "lati": 40.674193, "county": "怀安县", "city": "张家口", "province": "河北"}, {"code": "130729", "longi": 114.887543, "lati": 40.824418, "county": "万全县", "city": "张家口", "province": "河北"}, {"code": "130730", "longi": 115.517862, "lati": 40.415343, "county": "怀来县", "city": "张家口", "province": "河北"}, {"code": "130731", "longi": 115.205345, "lati": 40.379563, "county": "涿鹿县", "city": "张家口", "province": "河北"}, {"code": "130732", "longi": 115.831499, "lati": 40.912921, "county": "赤城县", "city": "张家口", "province": "河北"}, {"code": "130733", "longi": 114.887543, "lati": 40.824418, "county": "崇礼县", "city": "张家口", "province": "河北"}, {"code": "130802", "longi": 117.943348, "lati": 40.97465, "county": "双桥区", "city": "承德", "province": "河北"}, {"code": "130803", "longi": 117.799912, "lati": 40.959196, "county": "双滦区", "city": "承德", "province": "河北"}, {"code": "130804", "longi": 117.962411, "lati": 40.954071, "county": "鹰手营子矿区", "city": "承德", "province": "河北"}, {"code": "130821", "longi": 118.173825, "lati": 40.768238, "county": "承德县", "city": "承德", "province": "河北"}, {"code": "130822", "longi": 117.500558, "lati": 40.417358, "county": "兴隆县", "city": "承德", "province": "河北"}, {"code": "130823", "longi": 118.701951, "lati": 41.018405, "county": "平泉县", "city": "承德", "province": "河北"}, {"code": "130824", "longi": 117.332801, "lati": 40.941482, "county": "滦平县", "city": "承德", "province": "河北"}, {"code": "130825", "longi": 117.738938, "lati": 41.313791, "county": "隆化县", "city": "承德", "province": "河北"}, {"code": "130826", "longi": 116.645932, "lati": 41.208899, "county": "丰宁满族自治县", "city": "承德", "province": "河北"}, {"code": "130827", "longi": 118.485313, "lati": 40.611391, "county": "宽城满族自治县", "city": "承德", "province": "河北"}, {"code": "130828", "longi": 117.760159, "lati": 41.938529, "county": "围场满族蒙古族自治县", "city": "承德", "province": "河北"}, {"code": "130902", "longi": 116.866284, "lati": 38.314416, "county": "新华区", "city": "沧州", "province": "河北"}, {"code": "130903", "longi": 116.832208, "lati": 38.310136, "county": "运河区", "city": "沧州", "province": "河北"}, {"code": "130921", "longi": 117.007478, "lati": 38.219856, "county": "沧县", "city": "沧州", "province": "河北"}, {"code": "130922", "longi": 116.804306, "lati": 38.583021, "county": "青县", "city": "沧州", "province": "河北"}, {"code": "130923", "longi": 116.537067, "lati": 37.888248, "county": "东光县", "city": "沧州", "province": "河北"}, {"code": "130924", "longi": 117.496606, "lati": 38.141582, "county": "海兴县", "city": "沧州", "province": "河北"}, {"code": "130925", "longi": 117.230603, "lati": 38.058088, "county": "盐山县", "city": "沧州", "province": "河北"}, {"code": "130926", "longi": 115.829758, "lati": 38.422802, "county": "肃宁县", "city": "沧州", "province": "河北"}, {"code": "130927", "longi": 116.708104, "lati": 38.038584, "county": "南皮县", "city": "沧州", "province": "河北"}, {"code": "130928", "longi": 116.391508, "lati": 37.627661, "county": "吴桥县", "city": "沧州", "province": "河北"}, {"code": "130929", "longi": 116.122802, "lati": 38.190144, "county": "献县", "city": "沧州", "province": "河北"}, {"code": "130930", "longi": 117.104298, "lati": 38.053409, "county": "孟村回族自治县", "city": "沧州", "province": "河北"}, {"code": "130981", "longi": 116.578368, "lati": 38.083437, "county": "泊头市", "city": "沧州", "province": "河北"}, {"code": "130982", "longi": 116.082918, "lati": 38.683592, "county": "任丘市", "city": "沧州", "province": "河北"}, {"code": "130983", "longi": 117.330048, "lati": 38.371383, "county": "黄骅市", "city": "沧州", "province": "河北"}, {"code": "130984", "longi": 116.099518, "lati": 38.446624, "county": "河间市", "city": "沧州", "province": "河北"}, {"code": "131002", "longi": 116.694544, "lati": 39.502569, "county": "安次区", "city": "廊坊", "province": "河北"}, {"code": "131003", "longi": 116.71069, "lati": 39.522786, "county": "广阳区", "city": "廊坊", "province": "河北"}, {"code": "131022", "longi": 116.298657, "lati": 39.438214, "county": "固安县", "city": "廊坊", "province": "河北"}, {"code": "131023", "longi": 116.499028, "lati": 39.321794, "county": "永清县", "city": "廊坊", "province": "河北"}, {"code": "131024", "longi": 117.006093, "lati": 39.761424, "county": "香河县", "city": "廊坊", "province": "河北"}, {"code": "131025", "longi": 116.653794, "lati": 38.705449, "county": "大城县", "city": "廊坊", "province": "河北"}, {"code": "131026", "longi": 116.457858, "lati": 38.873281, "county": "文安县", "city": "廊坊", "province": "河北"}, {"code": "131028", "longi": 116.989574, "lati": 39.886547, "county": "大厂回族自治县", "city": "廊坊", "province": "河北"}, {"code": "131081", "longi": 116.391386, "lati": 39.125898, "county": "霸州市", "city": "廊坊", "province": "河北"}, {"code": "131082", "longi": 117.078295, "lati": 39.982718, "county": "三河市", "city": "廊坊", "province": "河北"}, {"code": "131102", "longi": 115.675422, "lati": 37.735369, "county": "桃城区", "city": "衡水", "province": "河北"}, {"code": "131121", "longi": 115.72426, "lati": 37.513417, "county": "枣强县", "city": "衡水", "province": "河北"}, {"code": "131122", "longi": 115.887655, "lati": 37.801658, "county": "武邑县", "city": "衡水", "province": "河北"}, {"code": "131123", "longi": 115.982461, "lati": 38.041368, "county": "武强县", "city": "衡水", "province": "河北"}, {"code": "131124", "longi": 115.725833, "lati": 38.235892, "county": "饶阳县", "city": "衡水", "province": "河北"}, {"code": "131125", "longi": 115.519216, "lati": 38.23451, "county": "安平县", "city": "衡水", "province": "河北"}, {"code": "131126", "longi": 115.965874, "lati": 37.34741, "county": "故城县", "city": "衡水", "province": "河北"}, {"code": "131127", "longi": 116.270648, "lati": 37.69229, "county": "景县", "city": "衡水", "province": "河北"}, {"code": "131128", "longi": 116.144418, "lati": 37.868872, "county": "阜城县", "city": "衡水", "province": "河北"}, {"code": "131181", "longi": 115.579334, "lati": 37.550821, "county": "冀州市", "city": "衡水", "province": "河北"}, {"code": "131182", "longi": 115.559574, "lati": 38.001536, "county": "深州市", "city": "衡水", "province": "河北"}, {"code": "139001", "longi": 114.990159, "lati": 38.516174, "county": "定州", "city": "", "province": "河北"}, {"code": "139002", "longi": 115.218057, "lati": 37.943315, "county": "辛集", "city": "", "province": "河北"}, {"code": "140105", "longi": 112.565659, "lati": 37.736526, "county": "小店区", "city": "太原", "province": "山西"}, {"code": "140106", "longi": 112.5634, "lati": 37.863451, "county": "迎泽区", "city": "太原", "province": "山西"}, {"code": "140107", "longi": 112.570605, "lati": 37.893955, "county": "杏花岭区", "city": "太原", "province": "山西"}, {"code": "140108", "longi": 112.486691, "lati": 37.940387, "county": "尖草坪区", "city": "太原", "province": "山西"}, {"code": "140109", "longi": 112.515748, "lati": 37.859447, "county": "万柏林区", "city": "太原", "province": "山西"}, {"code": "140110", "longi": 112.47794, "lati": 37.715193, "county": "晋源区", "city": "太原", "province": "山西"}, {"code": "140121", "longi": 112.358667, "lati": 37.607443, "county": "清徐县", "city": "太原", "province": "山西"}, {"code": "140122", "longi": 112.672953, "lati": 38.058489, "county": "阳曲县", "city": "太原", "province": "山西"}, {"code": "140123", "longi": 111.797083, "lati": 38.067932, "county": "娄烦县", "city": "太原", "province": "山西"}, {"code": "140181", "longi": 112.175875, "lati": 37.907109, "county": "古交市", "city": "太原", "province": "山西"}, {"code": "140202", "longi": 113.298027, "lati": 40.075667, "county": "城区", "city": "大同", "province": "山西"}, {"code": "140203", "longi": 113.300129, "lati": 40.076763, "county": "矿区", "city": "大同", "province": "山西"}, {"code": "140211", "longi": 113.149693, "lati": 40.005405, "county": "南郊区", "city": "大同", "province": "山西"}, {"code": "140212", "longi": 113.140005, "lati": 40.255866, "county": "新荣区", "city": "大同", "province": "山西"}, {"code": "140221", "longi": 113.748945, "lati": 40.36106, "county": "阳高县", "city": "大同", "province": "山西"}, {"code": "140222", "longi": 114.090867, "lati": 40.420237, "county": "天镇县", "city": "大同", "province": "山西"}, {"code": "140223", "longi": 114.282758, "lati": 39.760281, "county": "广灵县", "city": "大同", "province": "山西"}, {"code": "140224", "longi": 114.23435, "lati": 39.442406, "county": "灵丘县", "city": "大同", "province": "山西"}, {"code": "140225", "longi": 113.699475, "lati": 39.693407, "county": "浑源县", "city": "大同", "province": "山西"}, {"code": "140226", "longi": 112.703008, "lati": 40.013442, "county": "左云县", "city": "大同", "province": "山西"}, {"code": "140227", "longi": 113.61244, "lati": 40.040295, "county": "大同县", "city": "大同", "province": "山西"}, {"code": "140302", "longi": 113.60067, "lati": 37.847437, "county": "城区", "city": "阳泉", "province": "山西"}, {"code": "140303", "longi": 113.580519, "lati": 37.856972, "county": "矿区", "city": "阳泉", "province": "山西"}, {"code": "140311", "longi": 113.594164, "lati": 37.944679, "county": "郊区", "city": "阳泉", "province": "山西"}, {"code": "140321", "longi": 113.657841, "lati": 37.786653, "county": "平定县", "city": "阳泉", "province": "山西"}, {"code": "140322", "longi": 113.41233, "lati": 38.085619, "county": "盂县", "city": "阳泉", "province": "山西"}, {"code": "140402", "longi": 113.123085, "lati": 36.203519, "county": "城区", "city": "长治", "province": "山西"}, {"code": "140411", "longi": 113.101211, "lati": 36.218388, "county": "郊区", "city": "长治", "province": "山西"}, {"code": "140421", "longi": 113.051407, "lati": 36.052858, "county": "长治县", "city": "长治", "province": "山西"}, {"code": "140423", "longi": 113.051491, "lati": 36.535817, "county": "襄垣县", "city": "长治", "province": "山西"}, {"code": "140424", "longi": 112.891998, "lati": 36.315663, "county": "屯留县", "city": "长治", "province": "山西"}, {"code": "140425", "longi": 113.435961, "lati": 36.200179, "county": "平顺县", "city": "长治", "province": "山西"}, {"code": "140426", "longi": 113.387155, "lati": 36.502328, "county": "黎城县", "city": "长治", "province": "山西"}, {"code": "140427", "longi": 113.207049, "lati": 36.115449, "county": "壶关县", "city": "长治", "province": "山西"}, {"code": "140428", "longi": 112.8779, "lati": 36.122334, "county": "长子县", "city": "长治", "province": "山西"}, {"code": "140429", "longi": 112.864562, "lati": 36.837625, "county": "武乡县", "city": "长治", "province": "山西"}, {"code": "140430", "longi": 112.699226, "lati": 36.756064, "county": "沁县", "city": "长治", "province": "山西"}, {"code": "140431", "longi": 112.337446, "lati": 36.5002, "county": "沁源县", "city": "长治", "province": "山西"}, {"code": "140481", "longi": 113.228852, "lati": 36.334104, "county": "潞城市", "city": "长治", "province": "山西"}, {"code": "140502", "longi": 112.853555, "lati": 35.501572, "county": "城区", "city": "晋城", "province": "山西"}, {"code": "140521", "longi": 112.186739, "lati": 35.690141, "county": "沁水县", "city": "晋城", "province": "山西"}, {"code": "140522", "longi": 112.414738, "lati": 35.486029, "county": "阳城县", "city": "晋城", "province": "山西"}, {"code": "140524", "longi": 113.280688, "lati": 35.775685, "county": "陵川县", "city": "晋城", "province": "山西"}, {"code": "140525", "longi": 112.899137, "lati": 35.617221, "county": "泽州县", "city": "晋城", "province": "山西"}, {"code": "140581", "longi": 112.92392, "lati": 35.797997, "county": "高平市", "city": "晋城", "province": "山西"}, {"code": "140602", "longi": 112.43225, "lati": 39.31894, "county": "朔城区", "city": "朔州", "province": "山西"}, {"code": "140603", "longi": 112.288331, "lati": 39.512155, "county": "平鲁区", "city": "朔州", "province": "山西"}, {"code": "140621", "longi": 112.8166, "lati": 39.526227, "county": "山阴县", "city": "朔州", "province": "山西"}, {"code": "140622", "longi": 113.191099, "lati": 39.554247, "county": "应县", "city": "朔州", "province": "山西"}, {"code": "140623", "longi": 112.466989, "lati": 39.989064, "county": "右玉县", "city": "朔州", "province": "山西"}, {"code": "140624", "longi": 113.099958, "lati": 39.827916, "county": "怀仁县", "city": "朔州", "province": "山西"}, {"code": "140702", "longi": 112.708241, "lati": 37.697792, "county": "榆次区", "city": "晋中", "province": "山西"}, {"code": "140721", "longi": 112.975287, "lati": 37.070788, "county": "榆社县", "city": "晋中", "province": "山西"}, {"code": "140722", "longi": 113.379372, "lati": 37.082681, "county": "左权县", "city": "晋中", "province": "山西"}, {"code": "140723", "longi": 113.570438, "lati": 37.329664, "county": "和顺县", "city": "晋中", "province": "山西"}, {"code": "140724", "longi": 113.706875, "lati": 37.61121, "county": "昔阳县", "city": "晋中", "province": "山西"}, {"code": "140725", "longi": 113.176434, "lati": 37.895325, "county": "寿阳县", "city": "晋中", "province": "山西"}, {"code": "140726", "longi": 112.551357, "lati": 37.421308, "county": "太谷县", "city": "晋中", "province": "山西"}, {"code": "140727", "longi": 112.335297, "lati": 37.358317, "county": "祁县", "city": "晋中", "province": "山西"}, {"code": "140728", "longi": 112.176273, "lati": 37.189559, "county": "平遥县", "city": "晋中", "province": "山西"}, {"code": "140729", "longi": 111.778685, "lati": 36.84786, "county": "灵石县", "city": "晋中", "province": "山西"}, {"code": "140781", "longi": 111.916712, "lati": 37.026945, "county": "介休市", "city": "晋中", "province": "山西"}, {"code": "140802", "longi": 110.998272, "lati": 35.015101, "county": "盐湖区", "city": "运城", "province": "山西"}, {"code": "140821", "longi": 110.774547, "lati": 35.144277, "county": "临猗县", "city": "运城", "province": "山西"}, {"code": "140822", "longi": 110.838024, "lati": 35.415254, "county": "万荣县", "city": "运城", "province": "山西"}, {"code": "140823", "longi": 111.22472, "lati": 35.356644, "county": "闻喜县", "city": "运城", "province": "山西"}, {"code": "140824", "longi": 110.983333, "lati": 35.604025, "county": "稷山县", "city": "运城", "province": "山西"}, {"code": "140825", "longi": 111.224778, "lati": 35.616288, "county": "新绛县", "city": "运城", "province": "山西"}, {"code": "140826", "longi": 111.568236, "lati": 35.49119, "county": "绛县", "city": "运城", "province": "山西"}, {"code": "140827", "longi": 111.669917, "lati": 35.29762, "county": "垣曲县", "city": "运城", "province": "山西"}, {"code": "140828", "longi": 111.220456, "lati": 35.141363, "county": "夏县", "city": "运城", "province": "山西"}, {"code": "140829", "longi": 111.194133, "lati": 34.82926, "county": "平陆县", "city": "运城", "province": "山西"}, {"code": "140830", "longi": 110.694369, "lati": 34.69358, "county": "芮城县", "city": "运城", "province": "山西"}, {"code": "140881", "longi": 110.447549, "lati": 34.86705, "county": "永济市", "city": "运城", "province": "山西"}, {"code": "140882", "longi": 110.712063, "lati": 35.596383, "county": "河津市", "city": "运城", "province": "山西"}, {"code": "140902", "longi": 112.746046, "lati": 38.404243, "county": "忻府区", "city": "忻州", "province": "山西"}, {"code": "140921", "longi": 112.957215, "lati": 38.473548, "county": "定襄县", "city": "忻州", "province": "山西"}, {"code": "140922", "longi": 113.255309, "lati": 38.728315, "county": "五台县", "city": "忻州", "province": "山西"}, {"code": "140923", "longi": 112.960282, "lati": 39.066917, "county": "代县", "city": "忻州", "province": "山西"}, {"code": "140924", "longi": 113.265564, "lati": 39.188811, "county": "繁峙县", "city": "忻州", "province": "山西"}, {"code": "140925", "longi": 112.304722, "lati": 39.001524, "county": "宁武县", "city": "忻州", "province": "山西"}, {"code": "140926", "longi": 111.93944, "lati": 38.359036, "county": "静乐县", "city": "忻州", "province": "山西"}, {"code": "140927", "longi": 112.211297, "lati": 39.090553, "county": "神池县", "city": "忻州", "province": "山西"}, {"code": "140928", "longi": 111.846905, "lati": 38.910726, "county": "五寨县", "city": "忻州", "province": "山西"}, {"code": "140929", "longi": 111.57285, "lati": 38.70418, "county": "岢岚县", "city": "忻州", "province": "山西"}, {"code": "140930", "longi": 111.138472, "lati": 39.384482, "county": "河曲县", "city": "忻州", "province": "山西"}, {"code": "140931", "longi": 111.086564, "lati": 39.022488, "county": "保德县", "city": "忻州", "province": "山西"}, {"code": "140932", "longi": 111.508831, "lati": 39.436306, "county": "偏关县", "city": "忻州", "province": "山西"}, {"code": "140981", "longi": 112.711059, "lati": 38.731402, "county": "原平市", "city": "忻州", "province": "山西"}, {"code": "141002", "longi": 111.579554, "lati": 36.078841, "county": "尧都区", "city": "临汾", "province": "山西"}, {"code": "141021", "longi": 111.475861, "lati": 35.641087, "county": "曲沃县", "city": "临汾", "province": "山西"}, {"code": "141022", "longi": 111.718951, "lati": 35.738576, "county": "翼城县", "city": "临汾", "province": "山西"}, {"code": "141023", "longi": 111.441725, "lati": 35.876293, "county": "襄汾县", "city": "临汾", "province": "山西"}, {"code": "141024", "longi": 111.674966, "lati": 36.253748, "county": "洪洞县", "city": "临汾", "province": "山西"}, {"code": "141025", "longi": 111.920466, "lati": 36.266914, "county": "古县", "city": "临汾", "province": "山西"}, {"code": "141026", "longi": 112.250144, "lati": 36.147787, "county": "安泽县", "city": "临汾", "province": "山西"}, {"code": "141027", "longi": 111.848883, "lati": 35.968124, "county": "浮山县", "city": "临汾", "province": "山西"}, {"code": "141028", "longi": 110.681763, "lati": 36.098188, "county": "吉县", "city": "临汾", "province": "山西"}, {"code": "141029", "longi": 110.847021, "lati": 35.970389, "county": "乡宁县", "city": "临汾", "province": "山西"}, {"code": "141030", "longi": 110.752903, "lati": 36.465133, "county": "大宁县", "city": "临汾", "province": "山西"}, {"code": "141031", "longi": 110.940638, "lati": 36.693331, "county": "隰县", "city": "临汾", "province": "山西"}, {"code": "141032", "longi": 110.632007, "lati": 36.759507, "county": "永和县", "city": "临汾", "province": "山西"}, {"code": "141033", "longi": 111.096439, "lati": 36.411827, "county": "蒲县", "city": "临汾", "province": "山西"}, {"code": "141034", "longi": 111.563951, "lati": 36.652854, "county": "汾西县", "city": "临汾", "province": "山西"}, {"code": "141081", "longi": 111.372002, "lati": 35.619105, "county": "侯马市", "city": "临汾", "province": "山西"}, {"code": "141082", "longi": 111.755398, "lati": 36.568931, "county": "霍州市", "city": "临汾", "province": "山西"}, {"code": "141102", "longi": 111.150733, "lati": 37.517641, "county": "离石区", "city": "吕梁", "province": "山西"}, {"code": "141121", "longi": 112.028866, "lati": 37.438102, "county": "文水县", "city": "吕梁", "province": "山西"}, {"code": "141122", "longi": 112.155922, "lati": 37.551968, "county": "交城县", "city": "吕梁", "province": "山西"}, {"code": "141123", "longi": 111.127668, "lati": 38.46239, "county": "兴县", "city": "吕梁", "province": "山西"}, {"code": "141124", "longi": 110.992094, "lati": 37.950758, "county": "临县", "city": "吕梁", "province": "山西"}, {"code": "141125", "longi": 110.889071, "lati": 37.429832, "county": "柳林县", "city": "吕梁", "province": "山西"}, {"code": "141126", "longi": 110.834561, "lati": 36.997412, "county": "石楼县", "city": "吕梁", "province": "山西"}, {"code": "141127", "longi": 111.671917, "lati": 38.279299, "county": "岚县", "city": "吕梁", "province": "山西"}, {"code": "141128", "longi": 111.244098, "lati": 37.894631, "county": "方山县", "city": "吕梁", "province": "山西"}, {"code": "141129", "longi": 111.179657, "lati": 37.357058, "county": "中阳县", "city": "吕梁", "province": "山西"}, {"code": "141130", "longi": 111.181151, "lati": 36.982186, "county": "交口县", "city": "吕梁", "province": "山西"}, {"code": "141181", "longi": 111.778818, "lati": 37.146294, "county": "孝义市", "city": "吕梁", "province": "山西"}, {"code": "141182", "longi": 111.769894, "lati": 37.261564, "county": "汾阳市", "city": "吕梁", "province": "山西"}, {"code": "150102", "longi": 111.665544, "lati": 40.858289, "county": "新城区", "city": "呼和浩特", "province": "内蒙古"}, {"code": "150103", "longi": 111.623692, "lati": 40.808608, "county": "回民区", "city": "呼和浩特", "province": "内蒙古"}, {"code": "150104", "longi": 111.673881, "lati": 40.753655, "county": "玉泉区", "city": "呼和浩特", "province": "内蒙古"}, {"code": "150105", "longi": 111.701857, "lati": 40.792097, "county": "赛罕区", "city": "呼和浩特", "province": "内蒙古"}, {"code": "150121", "longi": 111.163902, "lati": 40.729573, "county": "土默特左旗", "city": "呼和浩特", "province": "内蒙古"}, {"code": "150122", "longi": 111.194313, "lati": 40.277431, "county": "托克托县", "city": "呼和浩特", "province": "内蒙古"}, {"code": "150123", "longi": 111.821843, "lati": 40.378787, "county": "和林格尔县", "city": "呼和浩特", "province": "内蒙古"}, {"code": "150124", "longi": 111.647609, "lati": 39.921095, "county": "清水河县", "city": "呼和浩特", "province": "内蒙古"}, {"code": "150125", "longi": 111.451303, "lati": 41.096471, "county": "武川县", "city": "呼和浩特", "province": "内蒙古"}, {"code": "150202", "longi": 110.044142, "lati": 40.575948, "county": "东河区", "city": "包头", "province": "内蒙古"}, {"code": "150203", "longi": 109.838178, "lati": 40.642236, "county": "昆都仑区", "city": "包头", "province": "内蒙古"}, {"code": "150204", "longi": 109.901572, "lati": 40.643246, "county": "青山区", "city": "包头", "province": "内蒙古"}, {"code": "150205", "longi": 110.060686, "lati": 40.676645, "county": "石拐区", "city": "包头", "province": "内蒙古"}, {"code": "150206", "longi": 109.840347, "lati": 40.657449, "county": "白云鄂博矿区", "city": "包头", "province": "内蒙古"}, {"code": "150207", "longi": 109.968122, "lati": 40.600581, "county": "九原区", "city": "包头", "province": "内蒙古"}, {"code": "150221", "longi": 110.524263, "lati": 40.569426, "county": "土默特右旗", "city": "包头", "province": "内蒙古"}, {"code": "150222", "longi": 110.060514, "lati": 41.034106, "county": "固阳县", "city": "包头", "province": "内蒙古"}, {"code": "150223", "longi": 110.432626, "lati": 41.698992, "county": "达尔罕茂明安联合旗", "city": "包头", "province": "内蒙古"}, {"code": "150302", "longi": 106.822779, "lati": 39.691156, "county": "海勃湾区", "city": "乌海", "province": "内蒙古"}, {"code": "150303", "longi": 106.891424, "lati": 39.441364, "county": "海南区", "city": "乌海", "province": "内蒙古"}, {"code": "150304", "longi": 106.726099, "lati": 39.505925, "county": "乌达区", "city": "乌海", "province": "内蒙古"}, {"code": "150402", "longi": 118.955528, "lati": 42.295818, "county": "红山区", "city": "赤峰", "province": "内蒙古"}, {"code": "150403", "longi": 119.288611, "lati": 42.038902, "county": "元宝山区", "city": "赤峰", "province": "内蒙古"}, {"code": "150404", "longi": 118.931962, "lati": 42.286873, "county": "松山区", "city": "赤峰", "province": "内蒙古"}, {"code": "150421", "longi": 120.0657, "lati": 43.872299, "county": "阿鲁科尔沁旗", "city": "赤峰", "province": "内蒙古"}, {"code": "150422", "longi": 119.37949, "lati": 43.971126, "county": "巴林左旗", "city": "赤峰", "province": "内蒙古"}, {"code": "150423", "longi": 118.66518, "lati": 43.534414, "county": "巴林右旗", "city": "赤峰", "province": "内蒙古"}, {"code": "150424", "longi": 118.05545, "lati": 43.61812, "county": "林西县", "city": "赤峰", "province": "内蒙古"}, {"code": "150425", "longi": 117.545798, "lati": 43.264989, "county": "克什克腾旗", "city": "赤峰", "province": "内蒙古"}, {"code": "150426", "longi": 119.00658, "lati": 42.936188, "county": "翁牛特旗", "city": "赤峰", "province": "内蒙古"}, {"code": "150428", "longi": 118.701938, "lati": 41.927364, "county": "喀喇沁旗", "city": "赤峰", "province": "内蒙古"}, {"code": "150429", "longi": 119.318876, "lati": 41.601375, "county": "宁城县", "city": "赤峰", "province": "内蒙古"}, {"code": "150430", "longi": 119.921604, "lati": 42.290782, "county": "敖汉旗", "city": "赤峰", "province": "内蒙古"}, {"code": "150502", "longi": 122.255675, "lati": 43.623077, "county": "科尔沁区", "city": "通辽", "province": "内蒙古"}, {"code": "150521", "longi": 123.312265, "lati": 44.126626, "county": "科尔沁左翼中旗", "city": "通辽", "province": "内蒙古"}, {"code": "150522", "longi": 122.356749, "lati": 42.935159, "county": "科尔沁左翼后旗", "city": "通辽", "province": "内蒙古"}, {"code": "150523", "longi": 121.319309, "lati": 43.601244, "county": "开鲁县", "city": "通辽", "province": "内蒙古"}, {"code": "150524", "longi": 121.810701, "lati": 42.735657, "county": "库伦旗", "city": "通辽", "province": "内蒙古"}, {"code": "150525", "longi": 120.658283, "lati": 42.867226, "county": "奈曼旗", "city": "通辽", "province": "内蒙古"}, {"code": "150526", "longi": 120.911676, "lati": 44.556389, "county": "扎鲁特旗", "city": "通辽", "province": "内蒙古"}, {"code": "150581", "longi": 119.663534, "lati": 45.531726, "county": "霍林郭勒市", "city": "通辽", "province": "内蒙古"}, {"code": "150602", "longi": 109.963339, "lati": 39.822507, "county": "东胜区", "city": "鄂尔多斯", "province": "内蒙古"}, {"code": "150621", "longi": 110.033833, "lati": 40.412438, "county": "达拉特旗", "city": "鄂尔多斯", "province": "内蒙古"}, {"code": "150622", "longi": 111.240171, "lati": 39.864362, "county": "准格尔旗", "city": "鄂尔多斯", "province": "内蒙古"}, {"code": "150623", "longi": 107.477515, "lati": 38.182362, "county": "鄂托克前旗", "city": "鄂尔多斯", "province": "内蒙古"}, {"code": "150624", "longi": 107.976161, "lati": 39.08965, "county": "鄂托克旗", "city": "鄂尔多斯", "province": "内蒙古"}, {"code": "150625", "longi": 108.736208, "lati": 39.833309, "county": "杭锦旗", "city": "鄂尔多斯", "province": "内蒙古"}, {"code": "150626", "longi": 108.817607, "lati": 38.604136, "county": "乌审旗", "city": "鄂尔多斯", "province": "内蒙古"}, {"code": "150627", "longi": 109.74774, "lati": 39.56466, "county": "伊金霍洛旗", "city": "鄂尔多斯", "province": "内蒙古"}, {"code": "150702", "longi": 119.736279, "lati": 49.212189, "county": "海拉尔区", "city": "呼伦贝尔", "province": "内蒙古"}, {"code": "150703", "longi": 117.670248, "lati": 49.510375, "county": "扎赉诺尔区", "city": "呼伦贝尔", "province": "内蒙古"}, {"code": "150721", "longi": 123.45905, "lati": 48.126585, "county": "阿荣旗", "city": "呼伦贝尔", "province": "内蒙古"}, {"code": "150722", "longi": 124.519023, "lati": 48.477729, "county": "莫力达瓦达斡尔族自治旗", "city": "呼伦贝尔", "province": "内蒙古"}, {"code": "150723", "longi": 123.726201, "lati": 50.591842, "county": "鄂伦春自治旗", "city": "呼伦贝尔", "province": "内蒙古"}, {"code": "150724", "longi": 119.755213, "lati": 49.146588, "county": "鄂温克族自治旗", "city": "呼伦贝尔", "province": "内蒙古"}, {"code": "150725", "longi": 119.424026, "lati": 49.328916, "county": "陈巴尔虎旗", "city": "呼伦贝尔", "province": "内蒙古"}, {"code": "150726", "longi": 118.26982, "lati": 48.218241, "county": "新巴尔虎左旗", "city": "呼伦贝尔", "province": "内蒙古"}, {"code": "150727", "longi": 116.82369, "lati": 48.672101, "county": "新巴尔虎右旗", "city": "呼伦贝尔", "province": "内蒙古"}, {"code": "150781", "longi": 117.37853, "lati": 49.597841, "county": "满洲里市", "city": "呼伦贝尔", "province": "内蒙古"}, {"code": "150782", "longi": 120.71177, "lati": 49.285568, "county": "牙克石市", "city": "呼伦贝尔", "province": "内蒙古"}, {"code": "150783", "longi": 122.737467, "lati": 48.013733, "county": "扎兰屯市", "city": "呼伦贝尔", "province": "内蒙古"}, {"code": "150784", "longi": 120.180506, "lati": 50.243102, "county": "额尔古纳市", "city": "呼伦贝尔", "province": "内蒙古"}, {"code": "150785", "longi": 121.520388, "lati": 50.780345, "county": "根河市", "city": "呼伦贝尔", "province": "内蒙古"}, {"code": "150802", "longi": 107.363919, "lati": 40.751187, "county": "临河区", "city": "巴彦淖尔", "province": "内蒙古"}, {"code": "150821", "longi": 108.267562, "lati": 41.088422, "county": "五原县", "city": "巴彦淖尔", "province": "内蒙古"}, {"code": "150822", "longi": 107.008248, "lati": 40.330524, "county": "磴口县", "city": "巴彦淖尔", "province": "内蒙古"}, {"code": "150823", "longi": 108.652119, "lati": 40.73703, "county": "乌拉特前旗", "city": "巴彦淖尔", "province": "内蒙古"}, {"code": "150824", "longi": 108.513645, "lati": 41.587732, "county": "乌拉特中旗", "city": "巴彦淖尔", "province": "内蒙古"}, {"code": "150825", "longi": 107.074621, "lati": 41.084283, "county": "乌拉特后旗", "city": "巴彦淖尔", "province": "内蒙古"}, {"code": "150826", "longi": 107.150909, "lati": 40.885896, "county": "杭锦后旗", "city": "巴彦淖尔", "province": "内蒙古"}, {"code": "150902", "longi": 113.123779, "lati": 40.990689, "county": "集宁区", "city": "乌兰察布", "province": "内蒙古"}, {"code": "150921", "longi": 112.577528, "lati": 40.894692, "county": "卓资县", "city": "乌兰察布", "province": "内蒙古"}, {"code": "150922", "longi": 114.010438, "lati": 41.90456, "county": "化德县", "city": "乌兰察布", "province": "内蒙古"}, {"code": "150923", "longi": 113.577816, "lati": 41.562113, "county": "商都县", "city": "乌兰察布", "province": "内蒙古"}, {"code": "150924", "longi": 113.834173, "lati": 40.872301, "county": "兴和县", "city": "乌兰察布", "province": "内蒙古"}, {"code": "150925", "longi": 112.503971, "lati": 40.531555, "county": "凉城县", "city": "乌兰察布", "province": "内蒙古"}, {"code": "150926", "longi": 113.214733, "lati": 40.785631, "county": "察哈尔右翼前旗", "city": "乌兰察布", "province": "内蒙古"}, {"code": "150927", "longi": 112.635577, "lati": 41.277462, "county": "察哈尔右翼中旗", "city": "乌兰察布", "province": "内蒙古"}, {"code": "150928", "longi": 113.191035, "lati": 41.436069, "county": "察哈尔右翼后旗", "city": "乌兰察布", "province": "内蒙古"}, {"code": "150929", "longi": 111.706618, "lati": 41.533462, "county": "四子王旗", "city": "乌兰察布", "province": "内蒙古"}, {"code": "150981", "longi": 113.109892, "lati": 40.436983, "county": "丰镇市", "city": "乌兰察布", "province": "内蒙古"}, {"code": "152201", "longi": 122.093123, "lati": 46.072732, "county": "乌兰浩特市", "city": "兴安", "province": "内蒙古"}, {"code": "152202", "longi": 119.943575, "lati": 47.17744, "county": "阿尔山市", "city": "兴安", "province": "内蒙古"}, {"code": "152221", "longi": 121.95255, "lati": 46.07981, "county": "科尔沁右翼前旗", "city": "兴安", "province": "内蒙古"}, {"code": "152222", "longi": 121.47653, "lati": 45.060837, "county": "科尔沁右翼中旗", "city": "兴安", "province": "内蒙古"}, {"code": "152223", "longi": 122.899656, "lati": 46.723237, "county": "扎赉特旗", "city": "兴安", "province": "内蒙古"}, {"code": "152224", "longi": 121.593799, "lati": 45.38193, "county": "突泉县", "city": "兴安", "province": "内蒙古"}, {"code": "152501", "longi": 111.977943, "lati": 43.65317, "county": "二连浩特市", "city": "锡林郭勒", "province": "内蒙古"}, {"code": "152502", "longi": 116.086032, "lati": 43.933411, "county": "锡林浩特市", "city": "锡林郭勒", "province": "内蒙古"}, {"code": "152522", "longi": 114.950248, "lati": 44.022995, "county": "阿巴嘎旗", "city": "锡林郭勒", "province": "内蒙古"}, {"code": "152523", "longi": 113.667248, "lati": 43.85988, "county": "苏尼特左旗", "city": "锡林郭勒", "province": "内蒙古"}, {"code": "152524", "longi": 112.641783, "lati": 42.742892, "county": "苏尼特右旗", "city": "锡林郭勒", "province": "内蒙古"}, {"code": "152525", "longi": 116.974494, "lati": 45.498221, "county": "东乌珠穆沁旗", "city": "锡林郭勒", "province": "内蒙古"}, {"code": "152526", "longi": 117.608911, "lati": 44.587882, "county": "西乌珠穆沁旗", "city": "锡林郭勒", "province": "内蒙古"}, {"code": "152527", "longi": 115.282986, "lati": 41.877136, "county": "太仆寺旗", "city": "锡林郭勒", "province": "内蒙古"}, {"code": "152528", "longi": 113.847287, "lati": 42.232371, "county": "镶黄旗", "city": "锡林郭勒", "province": "内蒙古"}, {"code": "152529", "longi": 115.029849, "lati": 42.287471, "county": "正镶白旗", "city": "锡林郭勒", "province": "内蒙古"}, {"code": "152530", "longi": 115.99247, "lati": 42.241638, "county": "正蓝旗", "city": "锡林郭勒", "province": "内蒙古"}, {"code": "152531", "longi": 116.485556, "lati": 42.203591, "county": "多伦县", "city": "锡林郭勒", "province": "内蒙古"}, {"code": "152921", "longi": 105.666293, "lati": 38.833411, "county": "阿拉善左旗", "city": "阿拉善", "province": "内蒙古"}, {"code": "152922", "longi": 101.666917, "lati": 39.216186, "county": "阿拉善右旗", "city": "阿拉善", "province": "内蒙古"}, {"code": "152923", "longi": 101.068934, "lati": 41.958542, "county": "额济纳旗", "city": "阿拉善", "province": "内蒙古"}, {"code": "210102", "longi": 123.420382, "lati": 41.789809, "county": "和平区", "city": "沈阳", "province": "辽宁"}, {"code": "210103", "longi": 123.458897, "lati": 41.795655, "county": "沈河区", "city": "沈阳", "province": "辽宁"}, {"code": "210104", "longi": 123.469949, "lati": 41.805137, "county": "大东区", "city": "沈阳", "province": "辽宁"}, {"code": "210105", "longi": 123.44197, "lati": 41.824796, "county": "皇姑区", "city": "沈阳", "province": "辽宁"}, {"code": "210106", "longi": 123.376301, "lati": 41.802914, "county": "铁西区", "city": "沈阳", "province": "辽宁"}, {"code": "210111", "longi": 123.344031, "lati": 41.664757, "county": "苏家屯区", "city": "沈阳", "province": "辽宁"}, {"code": "210112", "longi": 123.449715, "lati": 41.714914, "county": "浑南区", "city": "沈阳", "province": "辽宁"}, {"code": "210113", "longi": 123.583197, "lati": 41.912487, "county": "沈北新区", "city": "沈阳", "province": "辽宁"}, {"code": "210114", "longi": 123.308136, "lati": 41.793743, "county": "于洪区", "city": "沈阳", "province": "辽宁"}, {"code": "210122", "longi": 123.431475, "lati": 41.805698, "county": "辽中县", "city": "沈阳", "province": "辽宁"}, {"code": "210123", "longi": 123.355701, "lati": 42.741005, "county": "康平县", "city": "沈阳", "province": "辽宁"}, {"code": "210124", "longi": 123.440495, "lati": 42.50073, "county": "法库县", "city": "沈阳", "province": "辽宁"}, {"code": "210181", "longi": 122.836726, "lati": 41.985193, "county": "新民市", "city": "沈阳", "province": "辽宁"}, {"code": "210202", "longi": 121.644927, "lati": 38.918574, "county": "中山区", "city": "大连", "province": "辽宁"}, {"code": "210203", "longi": 121.612325, "lati": 38.914687, "county": "西岗区", "city": "大连", "province": "辽宁"}, {"code": "210204", "longi": 121.5942, "lati": 38.904808, "county": "沙河口区", "city": "大连", "province": "辽宁"}, {"code": "210211", "longi": 121.525461, "lati": 38.953351, "county": "甘井子区", "city": "大连", "province": "辽宁"}, {"code": "210212", "longi": 121.261953, "lati": 38.851705, "county": "旅顺口区", "city": "大连", "province": "辽宁"}, {"code": "210213", "longi": 121.782769, "lati": 39.05046, "county": "金州区", "city": "大连", "province": "辽宁"}, {"code": "210224", "longi": 122.588494, "lati": 39.272728, "county": "长海县", "city": "大连", "province": "辽宁"}, {"code": "210281", "longi": 121.979603, "lati": 39.627114, "county": "瓦房店市", "city": "大连", "province": "辽宁"}, {"code": "210282", "longi": 121.855874, "lati": 39.404604, "county": "普兰店市", "city": "大连", "province": "辽宁"}, {"code": "210283", "longi": 122.967328, "lati": 39.680811, "county": "庄河市", "city": "大连", "province": "辽宁"}, {"code": "210302", "longi": 122.991052, "lati": 41.089933, "county": "铁东区", "city": "鞍山", "province": "辽宁"}, {"code": "210303", "longi": 122.96963, "lati": 41.119885, "county": "铁西区", "city": "鞍山", "province": "辽宁"}, {"code": "210304", "longi": 123.029091, "lati": 41.150401, "county": "立山区", "city": "鞍山", "province": "辽宁"}, {"code": "210311", "longi": 122.949298, "lati": 41.068909, "county": "千山区", "city": "鞍山", "province": "辽宁"}, {"code": "210321", "longi": 122.436196, "lati": 41.412768, "county": "台安县", "city": "鞍山", "province": "辽宁"}, {"code": "210323", "longi": 123.280935, "lati": 40.29088, "county": "岫岩满族自治县", "city": "鞍山", "province": "辽宁"}, {"code": "210381", "longi": 122.685217, "lati": 40.882377, "county": "海城市", "city": "鞍山", "province": "辽宁"}, {"code": "210402", "longi": 123.912861, "lati": 41.86208, "county": "新抚区", "city": "抚顺", "province": "辽宁"}, {"code": "210403", "longi": 124.038685, "lati": 41.853192, "county": "东洲区", "city": "抚顺", "province": "辽宁"}, {"code": "210404", "longi": 123.784206, "lati": 41.853646, "county": "望花区", "city": "抚顺", "province": "辽宁"}, {"code": "210411", "longi": 123.94504, "lati": 41.883375, "county": "顺城区", "city": "抚顺", "province": "辽宁"}, {"code": "210421", "longi": 124.097979, "lati": 41.922644, "county": "抚顺县", "city": "抚顺", "province": "辽宁"}, {"code": "210422", "longi": 125.039978, "lati": 41.734256, "county": "新宾满族自治县", "city": "抚顺", "province": "辽宁"}, {"code": "210423", "longi": 124.924083, "lati": 42.100539, "county": "清原满族自治县", "city": "抚顺", "province": "辽宁"}, {"code": "210502", "longi": 123.768926, "lati": 41.299702, "county": "平山区", "city": "本溪", "province": "辽宁"}, {"code": "210503", "longi": 123.767647, "lati": 41.329219, "county": "溪湖区", "city": "本溪", "province": "辽宁"}, {"code": "210504", "longi": 123.817212, "lati": 41.30871, "county": "明山区", "city": "本溪", "province": "辽宁"}, {"code": "210505", "longi": 123.744802, "lati": 41.100445, "county": "南芬区", "city": "本溪", "province": "辽宁"}, {"code": "210521", "longi": 124.120436, "lati": 41.301892, "county": "本溪满族自治县", "city": "本溪", "province": "辽宁"}, {"code": "210522", "longi": 125.361007, "lati": 41.267128, "county": "桓仁满族自治县", "city": "本溪", "province": "辽宁"}, {"code": "210602", "longi": 124.395757, "lati": 40.13652, "county": "元宝区", "city": "丹东", "province": "辽宁"}, {"code": "210603", "longi": 124.360264, "lati": 40.105194, "county": "振兴区", "city": "丹东", "province": "辽宁"}, {"code": "210604", "longi": 124.428162, "lati": 40.158267, "county": "振安区", "city": "丹东", "province": "辽宁"}, {"code": "210624", "longi": 124.78366, "lati": 40.731317, "county": "宽甸满族自治县", "city": "丹东", "province": "辽宁"}, {"code": "210681", "longi": 124.152705, "lati": 39.863008, "county": "东港市", "city": "丹东", "province": "辽宁"}, {"code": "210682", "longi": 124.066919, "lati": 40.452298, "county": "凤城市", "city": "丹东", "province": "辽宁"}, {"code": "210702", "longi": 121.128279, "lati": 41.117245, "county": "古塔区", "city": "锦州", "province": "辽宁"}, {"code": "210703", "longi": 121.150877, "lati": 41.11499, "county": "凌河区", "city": "锦州", "province": "辽宁"}, {"code": "210711", "longi": 121.103892, "lati": 41.109147, "county": "太和区", "city": "锦州", "province": "辽宁"}, {"code": "210726", "longi": 122.123443, "lati": 41.666028, "county": "黑山县", "city": "锦州", "province": "辽宁"}, {"code": "210727", "longi": 121.23908, "lati": 41.533087, "county": "义县", "city": "锦州", "province": "辽宁"}, {"code": "210781", "longi": 121.35773, "lati": 41.1734, "county": "凌海市", "city": "锦州", "province": "辽宁"}, {"code": "210782", "longi": 121.795962, "lati": 41.598764, "county": "北镇市", "city": "锦州", "province": "辽宁"}, {"code": "210802", "longi": 122.258961, "lati": 40.67267, "county": "站前区", "city": "营口", "province": "辽宁"}, {"code": "210803", "longi": 122.206414, "lati": 40.666408, "county": "西市区", "city": "营口", "province": "辽宁"}, {"code": "210804", "longi": 122.107814, "lati": 40.230636, "county": "鲅鱼圈区", "city": "营口", "province": "辽宁"}, {"code": "210811", "longi": 122.379967, "lati": 40.680303, "county": "老边区", "city": "营口", "province": "辽宁"}, {"code": "210881", "longi": 122.348936, "lati": 40.400611, "county": "盖州市", "city": "营口", "province": "辽宁"}, {"code": "210882", "longi": 122.509131, "lati": 40.644622, "county": "大石桥市", "city": "营口", "province": "辽宁"}, {"code": "210902", "longi": 121.656255, "lati": 42.013242, "county": "海州区", "city": "阜新", "province": "辽宁"}, {"code": "210903", "longi": 121.792535, "lati": 42.087632, "county": "新邱区", "city": "阜新", "province": "辽宁"}, {"code": "210904", "longi": 121.678512, "lati": 42.0106, "county": "太平区", "city": "阜新", "province": "辽宁"}, {"code": "210905", "longi": 121.416105, "lati": 41.7831, "county": "清河门区", "city": "阜新", "province": "辽宁"}, {"code": "210911", "longi": 121.68054, "lati": 42.025495, "county": "细河区", "city": "阜新", "province": "辽宁"}, {"code": "210921", "longi": 121.757901, "lati": 42.065175, "county": "阜新蒙古族自治县", "city": "阜新", "province": "辽宁"}, {"code": "210922", "longi": 122.538793, "lati": 42.386544, "county": "彰武县", "city": "阜新", "province": "辽宁"}, {"code": "211002", "longi": 123.174325, "lati": 41.270347, "county": "白塔区", "city": "辽阳", "province": "辽宁"}, {"code": "211003", "longi": 123.185386, "lati": 41.262608, "county": "文圣区", "city": "辽阳", "province": "辽宁"}, {"code": "211004", "longi": 123.196672, "lati": 41.217649, "county": "宏伟区", "city": "辽阳", "province": "辽宁"}, {"code": "211005", "longi": 123.419804, "lati": 41.151847, "county": "弓长岭区", "city": "辽阳", "province": "辽宁"}, {"code": "211011", "longi": 123.181782, "lati": 41.253277, "county": "太子河区", "city": "辽阳", "province": "辽宁"}, {"code": "211021", "longi": 123.105695, "lati": 41.205329, "county": "辽阳县", "city": "辽阳", "province": "辽宁"}, {"code": "211081", "longi": 123.339312, "lati": 41.426372, "county": "灯塔市", "city": "辽阳", "province": "辽宁"}, {"code": "211102", "longi": 122.060112, "lati": 41.190606, "county": "双台子区", "city": "盘锦", "province": "辽宁"}, {"code": "211103", "longi": 122.069897, "lati": 41.158678, "county": "兴隆台区", "city": "盘锦", "province": "辽宁"}, {"code": "211121", "longi": 122.082575, "lati": 41.002279, "county": "大洼县", "city": "盘锦", "province": "辽宁"}, {"code": "211122", "longi": 121.996499, "lati": 41.242873, "county": "盘山县", "city": "盘锦", "province": "辽宁"}, {"code": "211202", "longi": 123.842305, "lati": 42.28613, "county": "银州区", "city": "铁岭", "province": "辽宁"}, {"code": "211204", "longi": 124.159192, "lati": 42.546565, "county": "清河区", "city": "铁岭", "province": "辽宁"}, {"code": "211221", "longi": 123.729004, "lati": 42.223383, "county": "铁岭县", "city": "铁岭", "province": "辽宁"}, {"code": "211223", "longi": 124.727393, "lati": 42.73803, "county": "西丰县", "city": "铁岭", "province": "辽宁"}, {"code": "211224", "longi": 124.1111, "lati": 42.785791, "county": "昌图县", "city": "铁岭", "province": "辽宁"}, {"code": "211281", "longi": 123.567117, "lati": 42.467521, "county": "调兵山市", "city": "铁岭", "province": "辽宁"}, {"code": "211282", "longi": 124.038268, "lati": 42.546307, "county": "开原市", "city": "铁岭", "province": "辽宁"}, {"code": "211302", "longi": 120.453744, "lati": 41.565628, "county": "双塔区", "city": "朝阳", "province": "辽宁"}, {"code": "211303", "longi": 120.413376, "lati": 41.576749, "county": "龙城区", "city": "朝阳", "province": "辽宁"}, {"code": "211321", "longi": 120.389862, "lati": 41.497767, "county": "朝阳县", "city": "朝阳", "province": "辽宁"}, {"code": "211322", "longi": 119.64328, "lati": 41.403128, "county": "建平县", "city": "朝阳", "province": "辽宁"}, {"code": "211324", "longi": 119.741223, "lati": 41.12815, "county": "喀喇沁左翼蒙古族自治县", "city": "朝阳", "province": "辽宁"}, {"code": "211381", "longi": 120.77073, "lati": 41.800684, "county": "北票市", "city": "朝阳", "province": "辽宁"}, {"code": "211382", "longi": 119.401574, "lati": 41.245445, "county": "凌源市", "city": "朝阳", "province": "辽宁"}, {"code": "211402", "longi": 120.869231, "lati": 40.774461, "county": "连山区", "city": "葫芦岛", "province": "辽宁"}, {"code": "211403", "longi": 120.893786, "lati": 40.735519, "county": "龙港区", "city": "葫芦岛", "province": "辽宁"}, {"code": "211404", "longi": 120.749728, "lati": 41.107108, "county": "南票区", "city": "葫芦岛", "province": "辽宁"}, {"code": "211421", "longi": 120.344229, "lati": 40.325659, "county": "绥中县", "city": "葫芦岛", "province": "辽宁"}, {"code": "211422", "longi": 119.837124, "lati": 40.824368, "county": "建昌县", "city": "葫芦岛", "province": "辽宁"}, {"code": "211481", "longi": 120.72831, "lati": 40.614762, "county": "兴城市", "city": "葫芦岛", "province": "辽宁"}, {"code": "220102", "longi": 125.350173, "lati": 43.863989, "county": "南关区", "city": "长春", "province": "吉林"}, {"code": "220103", "longi": 125.326578, "lati": 43.943614, "county": "宽城区", "city": "长春", "province": "吉林"}, {"code": "220104", "longi": 125.288319, "lati": 43.833513, "county": "朝阳区", "city": "长春", "province": "吉林"}, {"code": "220105", "longi": 125.374217, "lati": 43.865596, "county": "二道区", "city": "长春", "province": "吉林"}, {"code": "220106", "longi": 125.256136, "lati": 43.880975, "county": "绿园区", "city": "长春", "province": "吉林"}, {"code": "220112", "longi": 125.664662, "lati": 43.525311, "county": "双阳区", "city": "长春", "province": "吉林"}, {"code": "220113", "longi": 125.839574, "lati": 44.151742, "county": "九台区", "city": "长春", "province": "吉林"}, {"code": "220122", "longi": 125.184742, "lati": 44.432889, "county": "农安县", "city": "长春", "province": "吉林"}, {"code": "220182", "longi": 126.533146, "lati": 44.840288, "county": "榆树市", "city": "长春", "province": "吉林"}, {"code": "220183", "longi": 125.72862, "lati": 44.521785, "county": "德惠市", "city": "长春", "province": "吉林"}, {"code": "220202", "longi": 126.57471, "lati": 43.881818, "county": "昌邑区", "city": "吉林", "province": "吉林"}, {"code": "220203", "longi": 126.562197, "lati": 43.910803, "county": "龙潭区", "city": "吉林", "province": "吉林"}, {"code": "220204", "longi": 126.540966, "lati": 43.833445, "county": "船营区", "city": "吉林", "province": "吉林"}, {"code": "220211", "longi": 126.562274, "lati": 43.821601, "county": "丰满区", "city": "吉林", "province": "吉林"}, {"code": "220221", "longi": 126.497741, "lati": 43.672582, "county": "永吉县", "city": "吉林", "province": "吉林"}, {"code": "220281", "longi": 127.344501, "lati": 43.723713, "county": "蛟河市", "city": "吉林", "province": "吉林"}, {"code": "220282", "longi": 126.74631, "lati": 42.972097, "county": "桦甸市", "city": "吉林", "province": "吉林"}, {"code": "220283", "longi": 126.965607, "lati": 44.406106, "county": "舒兰市", "city": "吉林", "province": "吉林"}, {"code": "220284", "longi": 126.060427, "lati": 42.946285, "county": "磐石市", "city": "吉林", "province": "吉林"}, {"code": "220302", "longi": 124.345722, "lati": 43.146155, "county": "铁西区", "city": "四平", "province": "吉林"}, {"code": "220303", "longi": 124.409622, "lati": 43.162048, "county": "铁东区", "city": "四平", "province": "吉林"}, {"code": "220322", "longi": 124.33539, "lati": 43.30706, "county": "梨树县", "city": "四平", "province": "吉林"}, {"code": "220323", "longi": 125.305394, "lati": 43.345754, "county": "伊通满族自治县", "city": "四平", "province": "吉林"}, {"code": "220381", "longi": 124.82283, "lati": 43.504687, "county": "公主岭市", "city": "四平", "province": "吉林"}, {"code": "220382", "longi": 123.502724, "lati": 43.518302, "county": "双辽市", "city": "四平", "province": "吉林"}, {"code": "220402", "longi": 125.136452, "lati": 42.901534, "county": "龙山区", "city": "辽源", "province": "吉林"}, {"code": "220403", "longi": 125.149283, "lati": 42.927265, "county": "西安区", "city": "辽源", "province": "吉林"}, {"code": "220421", "longi": 125.530991, "lati": 42.676935, "county": "东丰县", "city": "辽源", "province": "吉林"}, {"code": "220422", "longi": 124.991521, "lati": 42.926331, "county": "东辽县", "city": "辽源", "province": "吉林"}, {"code": "220502", "longi": 125.955102, "lati": 41.728498, "county": "东昌区", "city": "通化", "province": "吉林"}, {"code": "220503", "longi": 126.042535, "lati": 41.774053, "county": "二道江区", "city": "通化", "province": "吉林"}, {"code": "220521", "longi": 125.759259, "lati": 41.679808, "county": "通化县", "city": "通化", "province": "吉林"}, {"code": "220523", "longi": 126.046912, "lati": 42.684993, "county": "辉南县", "city": "通化", "province": "吉林"}, {"code": "220524", "longi": 125.744735, "lati": 42.284606, "county": "柳河县", "city": "通化", "province": "吉林"}, {"code": "220581", "longi": 125.683832, "lati": 42.530341, "county": "梅河口市", "city": "通化", "province": "吉林"}, {"code": "220582", "longi": 126.194031, "lati": 41.125307, "county": "集安市", "city": "通化", "province": "吉林"}, {"code": "220602", "longi": 126.416094, "lati": 41.945409, "county": "浑江区", "city": "白山", "province": "吉林"}, {"code": "220605", "longi": 126.591144, "lati": 42.056773, "county": "江源区", "city": "白山", "province": "吉林"}, {"code": "220621", "longi": 127.449764, "lati": 42.221208, "county": "抚松县", "city": "白山", "province": "吉林"}, {"code": "220622", "longi": 126.813625, "lati": 42.38876, "county": "靖宇县", "city": "白山", "province": "吉林"}, {"code": "220623", "longi": 128.200789, "lati": 41.420018, "county": "长白朝鲜族自治县", "city": "白山", "province": "吉林"}, {"code": "220681", "longi": 126.918087, "lati": 41.811979, "county": "临江市", "city": "白山", "province": "吉林"}, {"code": "220702", "longi": 124.817033, "lati": 45.171757, "county": "宁江区", "city": "松原", "province": "吉林"}, {"code": "220721", "longi": 124.823242, "lati": 45.11803, "county": "前郭尔罗斯蒙古族自治县", "city": "松原", "province": "吉林"}, {"code": "220722", "longi": 123.967484, "lati": 44.275895, "county": "长岭县", "city": "松原", "province": "吉林"}, {"code": "220723", "longi": 124.041139, "lati": 45.003774, "county": "乾安县", "city": "松原", "province": "吉林"}, {"code": "220781", "longi": 126.049703, "lati": 44.988449, "county": "扶余市", "city": "松原", "province": "吉林"}, {"code": "220802", "longi": 122.851029, "lati": 45.621716, "county": "洮北区", "city": "白城", "province": "吉林"}, {"code": "220821", "longi": 123.19989, "lati": 45.847435, "county": "镇赉县", "city": "白城", "province": "吉林"}, {"code": "220822", "longi": 123.088239, "lati": 44.812911, "county": "通榆县", "city": "白城", "province": "吉林"}, {"code": "220881", "longi": 122.783779, "lati": 45.339113, "county": "洮南市", "city": "白城", "province": "吉林"}, {"code": "220882", "longi": 124.292626, "lati": 45.506996, "county": "大安市", "city": "白城", "province": "吉林"}, {"code": "222401", "longi": 129.508946, "lati": 42.891255, "county": "延吉市", "city": "延边州", "province": "吉林"}, {"code": "222402", "longi": 129.84371, "lati": 42.968044, "county": "图们市", "city": "延边州", "province": "吉林"}, {"code": "222403", "longi": 128.232013, "lati": 43.372413, "county": "敦化市", "city": "延边州", "province": "吉林"}, {"code": "222404", "longi": 130.366036, "lati": 42.862821, "county": "珲春市", "city": "延边州", "province": "吉林"}, {"code": "222405", "longi": 129.427066, "lati": 42.766311, "county": "龙井市", "city": "延边州", "province": "吉林"}, {"code": "222406", "longi": 129.010106, "lati": 42.546675, "county": "和龙市", "city": "延边州", "province": "吉林"}, {"code": "222424", "longi": 129.771607, "lati": 43.312522, "county": "汪清县", "city": "延边州", "province": "吉林"}, {"code": "222426", "longi": 128.899807, "lati": 43.111964, "county": "安图县", "city": "延边州", "province": "吉林"}, {"code": "230102", "longi": 126.616957, "lati": 45.755777, "county": "道里区", "city": "哈尔滨", "province": "黑龙江"}, {"code": "230103", "longi": 126.668788, "lati": 45.75997, "county": "南岗区", "city": "哈尔滨", "province": "黑龙江"}, {"code": "230104", "longi": 126.649451, "lati": 45.792113, "county": "道外区", "city": "哈尔滨", "province": "黑龙江"}, {"code": "230108", "longi": 126.534967, "lati": 45.803775, "county": "平房区", "city": "哈尔滨", "province": "黑龙江"}, {"code": "230109", "longi": 126.510275, "lati": 45.802756, "county": "松北区", "city": "哈尔滨", "province": "黑龙江"}, {"code": "230110", "longi": 126.662593, "lati": 45.707716, "county": "香坊区", "city": "哈尔滨", "province": "黑龙江"}, {"code": "230111", "longi": 126.587709, "lati": 45.889427, "county": "呼兰区", "city": "哈尔滨", "province": "黑龙江"}, {"code": "230112", "longi": 126.958098, "lati": 45.54867, "county": "阿城区", "city": "哈尔滨", "province": "黑龙江"}, {"code": "230113", "longi": 126.312745, "lati": 45.383263, "county": "双城区", "city": "哈尔滨", "province": "黑龙江"}, {"code": "230123", "longi": 129.567985, "lati": 46.324534, "county": "依兰县", "city": "哈尔滨", "province": "黑龙江"}, {"code": "230124", "longi": 128.829536, "lati": 45.851695, "county": "方正县", "city": "哈尔滨", "province": "黑龙江"}, {"code": "230125", "longi": 127.466634, "lati": 45.745918, "county": "宾县", "city": "哈尔滨", "province": "黑龙江"}, {"code": "230126", "longi": 127.403182, "lati": 46.085379, "county": "巴彦县", "city": "哈尔滨", "province": "黑龙江"}, {"code": "230127", "longi": 128.043466, "lati": 45.950582, "county": "木兰县", "city": "哈尔滨", "province": "黑龙江"}, {"code": "230128", "longi": 128.749352, "lati": 45.972425, "county": "通河县", "city": "哈尔滨", "province": "黑龙江"}, {"code": "230129", "longi": 128.331644, "lati": 45.451897, "county": "延寿县", "city": "哈尔滨", "province": "黑龙江"}, {"code": "230183", "longi": 128.009895, "lati": 45.209586, "county": "尚志市", "city": "哈尔滨", "province": "黑龙江"}, {"code": "230184", "longi": 127.167619, "lati": 44.931992, "county": "五常市", "city": "哈尔滨", "province": "黑龙江"}, {"code": "230202", "longi": 123.957531, "lati": 47.317309, "county": "龙沙区", "city": "齐齐哈尔", "province": "黑龙江"}, {"code": "230203", "longi": 123.955464, "lati": 47.354364, "county": "建华区", "city": "齐齐哈尔", "province": "黑龙江"}, {"code": "230204", "longi": 123.978293, "lati": 47.340518, "county": "铁锋区", "city": "齐齐哈尔", "province": "黑龙江"}, {"code": "230205", "longi": 123.822401, "lati": 47.15516, "county": "昂昂溪区", "city": "齐齐哈尔", "province": "黑龙江"}, {"code": "230206", "longi": 123.62919, "lati": 47.208843, "county": "富拉尔基区", "city": "齐齐哈尔", "province": "黑龙江"}, {"code": "230207", "longi": 122.887775, "lati": 47.516872, "county": "碾子山区", "city": "齐齐哈尔", "province": "黑龙江"}, {"code": "230208", "longi": 123.75291, "lati": 47.309537, "county": "梅里斯达斡尔族区", "city": "齐齐哈尔", "province": "黑龙江"}, {"code": "230221", "longi": 123.205323, "lati": 47.338665, "county": "龙江县", "city": "齐齐哈尔", "province": "黑龙江"}, {"code": "230223", "longi": 125.306279, "lati": 47.893548, "county": "依安县", "city": "齐齐哈尔", "province": "黑龙江"}, {"code": "230224", "longi": 123.416631, "lati": 46.393694, "county": "泰来县", "city": "齐齐哈尔", "province": "黑龙江"}, {"code": "230225", "longi": 123.507429, "lati": 47.922406, "county": "甘南县", "city": "齐齐哈尔", "province": "黑龙江"}, {"code": "230227", "longi": 124.473793, "lati": 47.774347, "county": "富裕县", "city": "齐齐哈尔", "province": "黑龙江"}, {"code": "230229", "longi": 125.875705, "lati": 48.037031, "county": "克山县", "city": "齐齐哈尔", "province": "黑龙江"}, {"code": "230230", "longi": 126.248721, "lati": 48.04206, "county": "克东县", "city": "齐齐哈尔", "province": "黑龙江"}, {"code": "230231", "longi": 126.100213, "lati": 47.595851, "county": "拜泉县", "city": "齐齐哈尔", "province": "黑龙江"}, {"code": "230281", "longi": 124.884244, "lati": 48.484099, "county": "讷河市", "city": "齐齐哈尔", "province": "黑龙江"}, {"code": "230302", "longi": 130.980894, "lati": 45.304073, "county": "鸡冠区", "city": "鸡西", "province": "黑龙江"}, {"code": "230303", "longi": 130.904963, "lati": 45.210668, "county": "恒山区", "city": "鸡西", "province": "黑龙江"}, {"code": "230304", "longi": 130.843613, "lati": 45.348764, "county": "滴道区", "city": "鸡西", "province": "黑龙江"}, {"code": "230305", "longi": 130.69699, "lati": 45.092046, "county": "梨树区", "city": "鸡西", "province": "黑龙江"}, {"code": "230306", "longi": 131.011304, "lati": 45.33697, "county": "城子河区", "city": "鸡西", "province": "黑龙江"}, {"code": "230307", "longi": 130.478187, "lati": 45.212088, "county": "麻山区", "city": "鸡西", "province": "黑龙江"}, {"code": "230321", "longi": 131.12408, "lati": 45.260412, "county": "鸡东县", "city": "鸡西", "province": "黑龙江"}, {"code": "230381", "longi": 132.93721, "lati": 45.762686, "county": "虎林市", "city": "鸡西", "province": "黑龙江"}, {"code": "230382", "longi": 131.846636, "lati": 45.529775, "county": "密山市", "city": "鸡西", "province": "黑龙江"}, {"code": "230402", "longi": 130.294309, "lati": 47.342478, "county": "向阳区", "city": "鹤岗", "province": "黑龙江"}, {"code": "230403", "longi": 130.274684, "lati": 47.318781, "county": "工农区", "city": "鹤岗", "province": "黑龙江"}, {"code": "230404", "longi": 130.287057, "lati": 47.315127, "county": "南山区", "city": "鹤岗", "province": "黑龙江"}, {"code": "230405", "longi": 130.239245, "lati": 47.25285, "county": "兴安区", "city": "鹤岗", "province": "黑龙江"}, {"code": "230406", "longi": 130.317062, "lati": 47.338535, "county": "东山区", "city": "鹤岗", "province": "黑龙江"}, {"code": "230407", "longi": 130.303574, "lati": 47.357666, "county": "兴山区", "city": "鹤岗", "province": "黑龙江"}, {"code": "230421", "longi": 130.828626, "lati": 47.577495, "county": "萝北县", "city": "鹤岗", "province": "黑龙江"}, {"code": "230422", "longi": 131.852759, "lati": 47.289116, "county": "绥滨县", "city": "鹤岗", "province": "黑龙江"}, {"code": "230502", "longi": 131.158416, "lati": 46.64635, "county": "尖山区", "city": "双鸭山", "province": "黑龙江"}, {"code": "230503", "longi": 131.164724, "lati": 46.592721, "county": "岭东区", "city": "双鸭山", "province": "黑龙江"}, {"code": "230505", "longi": 131.334503, "lati": 46.594316, "county": "四方台区", "city": "双鸭山", "province": "黑龙江"}, {"code": "230506", "longi": 131.401589, "lati": 46.577167, "county": "宝山区", "city": "双鸭山", "province": "黑龙江"}, {"code": "230521", "longi": 131.140483, "lati": 46.728377, "county": "集贤县", "city": "双鸭山", "province": "黑龙江"}, {"code": "230522", "longi": 131.808064, "lati": 46.767299, "county": "友谊县", "city": "双鸭山", "province": "黑龙江"}, {"code": "230523", "longi": 132.197243, "lati": 46.326925, "county": "宝清县", "city": "双鸭山", "province": "黑龙江"}, {"code": "230524", "longi": 134.013872, "lati": 46.798164, "county": "饶河县", "city": "双鸭山", "province": "黑龙江"}, {"code": "230602", "longi": 125.114643, "lati": 46.596356, "county": "萨尔图区", "city": "大庆", "province": "黑龙江"}, {"code": "230603", "longi": 125.135326, "lati": 46.562247, "county": "龙凤区", "city": "大庆", "province": "黑龙江"}, {"code": "230604", "longi": 124.870597, "lati": 46.652358, "county": "让胡路区", "city": "大庆", "province": "黑龙江"}, {"code": "230605", "longi": 124.891039, "lati": 46.398418, "county": "红岗区", "city": "大庆", "province": "黑龙江"}, {"code": "230606", "longi": 124.812364, "lati": 46.039828, "county": "大同区", "city": "大庆", "province": "黑龙江"}, {"code": "230621", "longi": 125.268643, "lati": 45.699066, "county": "肇州县", "city": "大庆", "province": "黑龙江"}, {"code": "230622", "longi": 125.078223, "lati": 45.51932, "county": "肇源县", "city": "大庆", "province": "黑龙江"}, {"code": "230623", "longi": 124.863603, "lati": 47.171717, "county": "林甸县", "city": "大庆", "province": "黑龙江"}, {"code": "230624", "longi": 124.442572, "lati": 46.862817, "county": "杜尔伯特蒙古族自治县", "city": "大庆", "province": "黑龙江"}, {"code": "230702", "longi": 128.907303, "lati": 47.728171, "county": "伊春区", "city": "伊春", "province": "黑龙江"}, {"code": "230703", "longi": 129.283467, "lati": 47.138035, "county": "南岔区", "city": "伊春", "province": "黑龙江"}, {"code": "230704", "longi": 128.84075, "lati": 47.853778, "county": "友好区", "city": "伊春", "province": "黑龙江"}, {"code": "230705", "longi": 129.312851, "lati": 47.480735, "county": "西林区", "city": "伊春", "province": "黑龙江"}, {"code": "230706", "longi": 128.669859, "lati": 47.726728, "county": "翠峦区", "city": "伊春", "province": "黑龙江"}, {"code": "230707", "longi": 129.5336, "lati": 48.290455, "county": "新青区", "city": "伊春", "province": "黑龙江"}, {"code": "230708", "longi": 129.129314, "lati": 47.63509, "county": "美溪区", "city": "伊春", "province": "黑龙江"}, {"code": "230709", "longi": 129.429117, "lati": 47.413074, "county": "金山屯区", "city": "伊春", "province": "黑龙江"}, {"code": "230710", "longi": 129.245344, "lati": 48.10791, "county": "五营区", "city": "伊春", "province": "黑龙江"}, {"code": "230711", "longi": 128.799478, "lati": 47.727687, "county": "乌马河区", "city": "伊春", "province": "黑龙江"}, {"code": "230712", "longi": 129.571108, "lati": 48.454651, "county": "汤旺河区", "city": "伊春", "province": "黑龙江"}, {"code": "230713", "longi": 129.020793, "lati": 47.028397, "county": "带岭区", "city": "伊春", "province": "黑龙江"}, {"code": "230714", "longi": 129.43792, "lati": 48.590323, "county": "乌伊岭区", "city": "伊春", "province": "黑龙江"}, {"code": "230715", "longi": 129.390983, "lati": 48.239432, "county": "红星区", "city": "伊春", "province": "黑龙江"}, {"code": "230716", "longi": 129.02426, "lati": 47.974708, "county": "上甘岭区", "city": "伊春", "province": "黑龙江"}, {"code": "230722", "longi": 130.403564, "lati": 48.889109, "county": "嘉荫县", "city": "伊春", "province": "黑龙江"}, {"code": "230781", "longi": 128.032422, "lati": 46.98664, "county": "铁力市", "city": "伊春", "province": "黑龙江"}, {"code": "230803", "longi": 130.365346, "lati": 46.80779, "county": "向阳区", "city": "佳木斯", "province": "黑龙江"}, {"code": "230804", "longi": 130.375063, "lati": 46.814103, "county": "前进区", "city": "佳木斯", "province": "黑龙江"}, {"code": "230805", "longi": 130.403664, "lati": 46.822572, "county": "东风区", "city": "佳木斯", "province": "黑龙江"}, {"code": "230811", "longi": 130.327195, "lati": 46.810086, "county": "郊区", "city": "佳木斯", "province": "黑龙江"}, {"code": "230822", "longi": 130.553343, "lati": 46.239185, "county": "桦南县", "city": "佳木斯", "province": "黑龙江"}, {"code": "230826", "longi": 130.719081, "lati": 47.023001, "county": "桦川县", "city": "佳木斯", "province": "黑龙江"}, {"code": "230828", "longi": 129.905072, "lati": 46.730706, "county": "汤原县", "city": "佳木斯", "province": "黑龙江"}, {"code": "230833", "longi": 134.307884, "lati": 48.364687, "county": "抚远县", "city": "佳木斯", "province": "黑龙江"}, {"code": "230881", "longi": 132.510919, "lati": 47.642707, "county": "同江市", "city": "佳木斯", "province": "黑龙江"}, {"code": "230882", "longi": 132.037686, "lati": 47.250108, "county": "富锦市", "city": "佳木斯", "province": "黑龙江"}, {"code": "230902", "longi": 130.932143, "lati": 45.81593, "county": "新兴区", "city": "七台河", "province": "黑龙江"}, {"code": "230903", "longi": 131.020275, "lati": 45.765594, "county": "桃山区", "city": "七台河", "province": "黑龙江"}, {"code": "230904", "longi": 131.068075, "lati": 45.785215, "county": "茄子河区", "city": "七台河", "province": "黑龙江"}, {"code": "230921", "longi": 130.592171, "lati": 45.755063, "county": "勃利县", "city": "七台河", "province": "黑龙江"}, {"code": "231002", "longi": 129.626642, "lati": 44.58136, "county": "东安区", "city": "牡丹江", "province": "黑龙江"}, {"code": "231003", "longi": 129.635615, "lati": 44.596104, "county": "阳明区", "city": "牡丹江", "province": "黑龙江"}, {"code": "231004", "longi": 129.591657, "lati": 44.596053, "county": "爱民区", "city": "牡丹江", "province": "黑龙江"}, {"code": "231005", "longi": 129.616121, "lati": 44.577625, "county": "西安区", "city": "牡丹江", "province": "黑龙江"}, {"code": "231024", "longi": 131.122915, "lati": 44.087585, "county": "东宁县", "city": "牡丹江", "province": "黑龙江"}, {"code": "231025", "longi": 130.284033, "lati": 45.278046, "county": "林口县", "city": "牡丹江", "province": "黑龙江"}, {"code": "231081", "longi": 131.152546, "lati": 44.412309, "county": "绥芬河市", "city": "牡丹江", "province": "黑龙江"}, {"code": "231083", "longi": 129.380482, "lati": 44.594213, "county": "海林市", "city": "牡丹江", "province": "黑龙江"}, {"code": "231084", "longi": 129.482851, "lati": 44.34072, "county": "宁安市", "city": "牡丹江", "province": "黑龙江"}, {"code": "231085", "longi": 130.524437, "lati": 44.918813, "county": "穆棱市", "city": "牡丹江", "province": "黑龙江"}, {"code": "231102", "longi": 127.500451, "lati": 50.252106, "county": "爱辉区", "city": "黑河", "province": "黑龙江"}, {"code": "231121", "longi": 125.221192, "lati": 49.185766, "county": "嫩江县", "city": "黑河", "province": "黑龙江"}, {"code": "231123", "longi": 128.47875, "lati": 49.564252, "county": "逊克县", "city": "黑河", "province": "黑龙江"}, {"code": "231124", "longi": 127.336304, "lati": 49.425652, "county": "孙吴县", "city": "黑河", "province": "黑龙江"}, {"code": "231181", "longi": 126.491199, "lati": 48.241374, "county": "北安市", "city": "黑河", "province": "黑龙江"}, {"code": "231182", "longi": 126.205516, "lati": 48.517257, "county": "五大连池市", "city": "黑河", "province": "黑龙江"}, {"code": "231202", "longi": 126.985593, "lati": 46.637344, "county": "北林区", "city": "绥化", "province": "黑龙江"}, {"code": "231221", "longi": 126.486076, "lati": 46.832719, "county": "望奎县", "city": "绥化", "province": "黑龙江"}, {"code": "231222", "longi": 126.288113, "lati": 46.252447, "county": "兰西县", "city": "绥化", "province": "黑龙江"}, {"code": "231223", "longi": 126.11386, "lati": 46.689671, "county": "青冈县", "city": "绥化", "province": "黑龙江"}, {"code": "231224", "longi": 127.507825, "lati": 46.880102, "county": "庆安县", "city": "绥化", "province": "黑龙江"}, {"code": "231225", "longi": 125.906301, "lati": 47.173426, "county": "明水县", "city": "绥化", "province": "黑龙江"}, {"code": "231226", "longi": 127.114832, "lati": 47.236015, "county": "绥棱县", "city": "绥化", "province": "黑龙江"}, {"code": "231281", "longi": 125.352188, "lati": 46.423508, "county": "安达市", "city": "绥化", "province": "黑龙江"}, {"code": "231282", "longi": 125.961814, "lati": 46.051126, "county": "肇东市", "city": "绥化", "province": "黑龙江"}, {"code": "231283", "longi": 126.973143, "lati": 47.461971, "county": "海伦市", "city": "绥化", "province": "黑龙江"}, {"code": "232721", "longi": 126.665319, "lati": 51.725637, "county": "呼玛县", "city": "大兴安岭", "province": "黑龙江"}, {"code": "232722", "longi": 124.709996, "lati": 52.334457, "county": "塔河县", "city": "大兴安岭", "province": "黑龙江"}, {"code": "232723", "longi": 122.538592, "lati": 52.972272, "county": "漠河县", "city": "大兴安岭", "province": "黑龙江"}, {"code": "310101", "longi": 121.484443, "lati": 31.231763, "county": "黄浦", "city": "", "province": "上海"}, {"code": "310104", "longi": 121.436525, "lati": 31.188523, "county": "徐汇", "city": "", "province": "上海"}, {"code": "310105", "longi": 121.424624, "lati": 31.220367, "county": "长宁", "city": "", "province": "上海"}, {"code": "310106", "longi": 121.455965, "lati": 31.223428, "county": "静安", "city": "", "province": "上海"}, {"code": "310107", "longi": 121.395555, "lati": 31.24984, "county": "普陀", "city": "", "province": "上海"}, {"code": "310108", "longi": 121.455965, "lati": 31.223428, "county": "闸北", "city": "", "province": "上海"}, {"code": "310109", "longi": 121.505133, "lati": 31.2646, "county": "虹口", "city": "", "province": "上海"}, {"code": "310110", "longi": 121.526077, "lati": 31.259541, "county": "杨浦", "city": "", "province": "上海"}, {"code": "310112", "longi": 121.381709, "lati": 31.112813, "county": "闵行", "city": "", "province": "上海"}, {"code": "310113", "longi": 121.489612, "lati": 31.405457, "county": "宝山", "city": "", "province": "上海"}, {"code": "310114", "longi": 121.2653, "lati": 31.375602, "county": "嘉定", "city": "", "province": "上海"}, {"code": "310115", "longi": 121.544379, "lati": 31.221517, "county": "浦东新", "city": "", "province": "上海"}, {"code": "310116", "longi": 121.34197, "lati": 30.741991, "county": "金山", "city": "", "province": "上海"}, {"code": "310117", "longi": 121.227747, "lati": 31.032243, "county": "松江", "city": "", "province": "上海"}, {"code": "310118", "longi": 121.124178, "lati": 31.150681, "county": "青浦", "city": "", "province": "上海"}, {"code": "310120", "longi": 121.474042, "lati": 30.917795, "county": "奉贤", "city": "", "province": "上海"}, {"code": "310230", "longi": 121.397417, "lati": 31.623587, "county": "崇明", "city": "", "province": "上海"}, {"code": "320102", "longi": 118.797861, "lati": 32.048687, "county": "玄武区", "city": "南京", "province": "江苏"}, {"code": "320104", "longi": 118.794744, "lati": 32.039133, "county": "秦淮区", "city": "南京", "province": "江苏"}, {"code": "320105", "longi": 118.731694, "lati": 32.003552, "county": "建邺区", "city": "南京", "province": "江苏"}, {"code": "320106", "longi": 118.76979, "lati": 32.066336, "county": "鼓楼区", "city": "南京", "province": "江苏"}, {"code": "320111", "longi": 118.627895, "lati": 32.059093, "county": "浦口区", "city": "南京", "province": "江苏"}, {"code": "320113", "longi": 118.909246, "lati": 32.096228, "county": "栖霞区", "city": "南京", "province": "江苏"}, {"code": "320114", "longi": 118.779073, "lati": 31.991347, "county": "雨花台区", "city": "南京", "province": "江苏"}, {"code": "320115", "longi": 118.839685, "lati": 31.953702, "county": "江宁区", "city": "南京", "province": "江苏"}, {"code": "320116", "longi": 118.821401, "lati": 32.322247, "county": "六合区", "city": "南京", "province": "江苏"}, {"code": "320117", "longi": 119.028296, "lati": 31.651125, "county": "溧水区", "city": "南京", "province": "江苏"}, {"code": "320118", "longi": 118.892085, "lati": 31.328471, "county": "高淳区", "city": "南京", "province": "江苏"}, {"code": "320202", "longi": 120.31191, "lati": 31.49117, "county": "崇安区", "city": "无锡", "province": "江苏"}, {"code": "320203", "longi": 120.31191, "lati": 31.49117, "county": "南长区", "city": "无锡", "province": "江苏"}, {"code": "320204", "longi": 120.31191, "lati": 31.49117, "county": "北塘区", "city": "无锡", "province": "江苏"}, {"code": "320205", "longi": 120.357858, "lati": 31.589715, "county": "锡山区", "city": "无锡", "province": "江苏"}, {"code": "320206", "longi": 120.2985, "lati": 31.681012, "county": "惠山区", "city": "无锡", "province": "江苏"}, {"code": "320211", "longi": 120.282692, "lati": 31.527954, "county": "滨湖区", "city": "无锡", "province": "江苏"}, {"code": "320281", "longi": 120.284939, "lati": 31.920658, "county": "江阴市", "city": "无锡", "province": "江苏"}, {"code": "320282", "longi": 119.823308, "lati": 31.340637, "county": "宜兴市", "city": "无锡", "province": "江苏"}, {"code": "320302", "longi": 117.185591, "lati": 34.288511, "county": "鼓楼区", "city": "徐州", "province": "江苏"}, {"code": "320303", "longi": 117.251469, "lati": 34.253164, "county": "云龙区", "city": "徐州", "province": "江苏"}, {"code": "320305", "longi": 117.466687, "lati": 34.435506, "county": "贾汪区", "city": "徐州", "province": "江苏"}, {"code": "320311", "longi": 117.193805, "lati": 34.244258, "county": "泉山区", "city": "徐州", "province": "江苏"}, {"code": "320312", "longi": 117.169421, "lati": 34.1807, "county": "铜山区", "city": "徐州", "province": "江苏"}, {"code": "320321", "longi": 116.595391, "lati": 34.693906, "county": "丰县", "city": "徐州", "province": "江苏"}, {"code": "320322", "longi": 116.937532, "lati": 34.721656, "county": "沛县", "city": "徐州", "province": "江苏"}, {"code": "320324", "longi": 117.941563, "lati": 33.912598, "county": "睢宁县", "city": "徐州", "province": "江苏"}, {"code": "320381", "longi": 118.354537, "lati": 34.36958, "county": "新沂市", "city": "徐州", "province": "江苏"}, {"code": "320382", "longi": 118.012531, "lati": 34.338888, "county": "邳州市", "city": "徐州", "province": "江苏"}, {"code": "320402", "longi": 119.974991, "lati": 31.779619, "county": "天宁区", "city": "常州", "province": "江苏"}, {"code": "320404", "longi": 119.902112, "lati": 31.802192, "county": "钟楼区", "city": "常州", "province": "江苏"}, {"code": "320411", "longi": 119.972182, "lati": 31.830641, "county": "新北区", "city": "常州", "province": "江苏"}, {"code": "320412", "longi": 119.942437, "lati": 31.701188, "county": "武进区", "city": "常州", "province": "江苏"}, {"code": "320413", "longi": 119.597897, "lati": 31.723247, "county": "金坛区", "city": "常州", "province": "江苏"}, {"code": "320481", "longi": 119.484211, "lati": 31.416911, "county": "溧阳市", "city": "常州", "province": "江苏"}, {"code": "320505", "longi": 120.566833, "lati": 31.294845, "county": "虎丘区", "city": "苏州", "province": "江苏"}, {"code": "320506", "longi": 120.631898, "lati": 31.264212, "county": "吴中区", "city": "苏州", "province": "江苏"}, {"code": "320507", "longi": 120.642663, "lati": 31.369088, "county": "相城区", "city": "苏州", "province": "江苏"}, {"code": "320508", "longi": 120.617296, "lati": 31.336392, "county": "姑苏区", "city": "苏州", "province": "江苏"}, {"code": "320509", "longi": 120.645158, "lati": 31.138677, "county": "吴江区", "city": "苏州", "province": "江苏"}, {"code": "320581", "longi": 120.752481, "lati": 31.654376, "county": "常熟市", "city": "苏州", "province": "江苏"}, {"code": "320582", "longi": 120.553284, "lati": 31.870367, "county": "张家港市", "city": "苏州", "province": "江苏"}, {"code": "320583", "longi": 120.980737, "lati": 31.385598, "county": "昆山市", "city": "苏州", "province": "江苏"}, {"code": "320585", "longi": 121.13055, "lati": 31.457735, "county": "太仓市", "city": "苏州", "province": "江苏"}, {"code": "320602", "longi": 120.857434, "lati": 32.009875, "county": "崇川区", "city": "南通", "province": "江苏"}, {"code": "320611", "longi": 120.818527, "lati": 32.032442, "county": "港闸区", "city": "南通", "province": "江苏"}, {"code": "320612", "longi": 121.075046, "lati": 32.06417, "county": "通州区", "city": "南通", "province": "江苏"}, {"code": "320621", "longi": 120.46737, "lati": 32.533549, "county": "海安县", "city": "南通", "province": "江苏"}, {"code": "320623", "longi": 121.185201, "lati": 32.331766, "county": "如东县", "city": "南通", "province": "江苏"}, {"code": "320681", "longi": 121.657441, "lati": 31.808026, "county": "启东市", "city": "南通", "province": "江苏"}, {"code": "320682", "longi": 120.574946, "lati": 32.370557, "county": "如皋市", "city": "南通", "province": "江苏"}, {"code": "320684", "longi": 121.181615, "lati": 31.871173, "county": "海门市", "city": "南通", "province": "江苏"}, {"code": "320703", "longi": 119.338788, "lati": 34.760249, "county": "连云区", "city": "连云港", "province": "江苏"}, {"code": "320706", "longi": 119.19371, "lati": 34.606756, "county": "海州区", "city": "连云港", "province": "江苏"}, {"code": "320707", "longi": 119.173331, "lati": 34.841349, "county": "赣榆区", "city": "连云港", "province": "江苏"}, {"code": "320722", "longi": 118.752842, "lati": 34.542309, "county": "东海县", "city": "连云港", "province": "江苏"}, {"code": "320723", "longi": 119.239381, "lati": 34.284381, "county": "灌云县", "city": "连云港", "province": "江苏"}, {"code": "320724", "longi": 119.315651, "lati": 34.087135, "county": "灌南县", "city": "连云港", "province": "江苏"}, {"code": "320802", "longi": 119.008062, "lati": 33.599504, "county": "清河区", "city": "淮安", "province": "江苏"}, {"code": "320803", "longi": 119.141099, "lati": 33.502869, "county": "淮安区", "city": "淮安", "province": "江苏"}, {"code": "320804", "longi": 119.034725, "lati": 33.631893, "county": "淮阴区", "city": "淮安", "province": "江苏"}, {"code": "320811", "longi": 119.02706, "lati": 33.552518, "county": "清浦区", "city": "淮安", "province": "江苏"}, {"code": "320826", "longi": 119.260335, "lati": 33.78096, "county": "涟水县", "city": "淮安", "province": "江苏"}, {"code": "320829", "longi": 118.873138, "lati": 33.294223, "county": "洪泽县", "city": "淮安", "province": "江苏"}, {"code": "320830", "longi": 118.54436, "lati": 33.011971, "county": "盱眙县", "city": "淮安", "province": "江苏"}, {"code": "320831", "longi": 119.020585, "lati": 33.025433, "county": "金湖县", "city": "淮安", "province": "江苏"}, {"code": "320902", "longi": 120.197358, "lati": 33.390536, "county": "亭湖区", "city": "盐城", "province": "江苏"}, {"code": "320903", "longi": 120.153888, "lati": 33.33811, "county": "盐都区", "city": "盐城", "province": "江苏"}, {"code": "320904", "longi": 120.500858, "lati": 33.200331, "county": "大丰区", "city": "盐城", "province": "江苏"}, {"code": "320921", "longi": 119.578364, "lati": 34.199479, "county": "响水县", "city": "盐城", "province": "江苏"}, {"code": "320922", "longi": 119.820831, "lati": 33.990334, "county": "滨海县", "city": "盐城", "province": "江苏"}, {"code": "320923", "longi": 119.802527, "lati": 33.759325, "county": "阜宁县", "city": "盐城", "province": "江苏"}, {"code": "320924", "longi": 120.258053, "lati": 33.774806, "county": "射阳县", "city": "盐城", "province": "江苏"}, {"code": "320925", "longi": 119.798581, "lati": 33.464204, "county": "建湖县", "city": "盐城", "province": "江苏"}, {"code": "320981", "longi": 120.320331, "lati": 32.86844, "county": "东台市", "city": "盐城", "province": "江苏"}, {"code": "321002", "longi": 119.431849, "lati": 32.39472, "county": "广陵区", "city": "扬州", "province": "江苏"}, {"code": "321003", "longi": 119.398015, "lati": 32.377528, "county": "邗江区", "city": "扬州", "province": "江苏"}, {"code": "321012", "longi": 119.569989, "lati": 32.434672, "county": "江都区", "city": "扬州", "province": "江苏"}, {"code": "321023", "longi": 119.360729, "lati": 33.240392, "county": "宝应县", "city": "扬州", "province": "江苏"}, {"code": "321081", "longi": 119.184766, "lati": 32.272258, "county": "仪征市", "city": "扬州", "province": "江苏"}, {"code": "321084", "longi": 119.459161, "lati": 32.781659, "county": "高邮市", "city": "扬州", "province": "江苏"}, {"code": "321102", "longi": 119.47016, "lati": 32.19828, "county": "京口区", "city": "镇江", "province": "江苏"}, {"code": "321111", "longi": 119.411945, "lati": 32.195333, "county": "润州区", "city": "镇江", "province": "江苏"}, {"code": "321112", "longi": 119.433854, "lati": 32.131962, "county": "丹徒区", "city": "镇江", "province": "江苏"}, {"code": "321181", "longi": 119.606536, "lati": 32.010117, "county": "丹阳市", "city": "镇江", "province": "江苏"}, {"code": "321182", "longi": 119.797635, "lati": 32.234831, "county": "扬中市", "city": "镇江", "province": "江苏"}, {"code": "321183", "longi": 119.168695, "lati": 31.944999, "county": "句容市", "city": "镇江", "province": "江苏"}, {"code": "321202", "longi": 119.919425, "lati": 32.491016, "county": "海陵区", "city": "泰州", "province": "江苏"}, {"code": "321203", "longi": 119.881717, "lati": 32.318822, "county": "高港区", "city": "泰州", "province": "江苏"}, {"code": "321204", "longi": 120.127934, "lati": 32.509155, "county": "姜堰区", "city": "泰州", "province": "江苏"}, {"code": "321281", "longi": 119.852541, "lati": 32.910459, "county": "兴化市", "city": "泰州", "province": "江苏"}, {"code": "321282", "longi": 120.277138, "lati": 31.982751, "county": "靖江市", "city": "泰州", "province": "江苏"}, {"code": "321283", "longi": 120.051744, "lati": 32.171854, "county": "泰兴市", "city": "泰州", "province": "江苏"}, {"code": "321302", "longi": 118.242534, "lati": 33.963029, "county": "宿城区", "city": "宿迁", "province": "江苏"}, {"code": "321311", "longi": 118.330782, "lati": 33.946822, "county": "宿豫区", "city": "宿迁", "province": "江苏"}, {"code": "321322", "longi": 118.804784, "lati": 34.111022, "county": "沭阳县", "city": "宿迁", "province": "江苏"}, {"code": "321323", "longi": 118.703038, "lati": 33.72314, "county": "泗阳县", "city": "宿迁", "province": "江苏"}, {"code": "321324", "longi": 118.223591, "lati": 33.476051, "county": "泗洪县", "city": "宿迁", "province": "江苏"}, {"code": "330102", "longi": 120.169329, "lati": 30.242312, "county": "上城区", "city": "杭州", "province": "浙江"}, {"code": "330103", "longi": 120.180895, "lati": 30.281714, "county": "下城区", "city": "杭州", "province": "浙江"}, {"code": "330104", "longi": 120.205001, "lati": 30.257012, "county": "江干区", "city": "杭州", "province": "浙江"}, {"code": "330105", "longi": 120.141406, "lati": 30.319037, "county": "拱墅区", "city": "杭州", "province": "浙江"}, {"code": "330106", "longi": 120.130203, "lati": 30.259324, "county": "西湖区", "city": "杭州", "province": "浙江"}, {"code": "330108", "longi": 120.211816, "lati": 30.20856, "county": "滨江区", "city": "杭州", "province": "浙江"}, {"code": "330109", "longi": 120.264253, "lati": 30.183806, "county": "萧山区", "city": "杭州", "province": "浙江"}, {"code": "330110", "longi": 120.299402, "lati": 30.419045, "county": "余杭区", "city": "杭州", "province": "浙江"}, {"code": "330111", "longi": 119.960076, "lati": 30.048692, "county": "富阳区", "city": "杭州", "province": "浙江"}, {"code": "330122", "longi": 119.691434, "lati": 29.793535, "county": "桐庐县", "city": "杭州", "province": "浙江"}, {"code": "330127", "longi": 119.041864, "lati": 29.608772, "county": "淳安县", "city": "杭州", "province": "浙江"}, {"code": "330182", "longi": 119.281164, "lati": 29.474871, "county": "建德市", "city": "杭州", "province": "浙江"}, {"code": "330185", "longi": 119.724733, "lati": 30.233873, "county": "临安市", "city": "杭州", "province": "浙江"}, {"code": "330203", "longi": 121.551066, "lati": 29.859772, "county": "海曙区", "city": "宁波", "province": "浙江"}, {"code": "330204", "longi": 121.570383, "lati": 29.866819, "county": "江东区", "city": "宁波", "province": "浙江"}, {"code": "330205", "longi": 121.555227, "lati": 29.886757, "county": "江北区", "city": "宁波", "province": "浙江"}, {"code": "330206", "longi": 121.844618, "lati": 29.899044, "county": "北仑区", "city": "宁波", "province": "浙江"}, {"code": "330211", "longi": 121.71654, "lati": 29.948998, "county": "镇海区", "city": "宁波", "province": "浙江"}, {"code": "330212", "longi": 121.546603, "lati": 29.816511, "county": "鄞州区", "city": "宁波", "province": "浙江"}, {"code": "330225", "longi": 121.869339, "lati": 29.476705, "county": "象山县", "city": "宁波", "province": "浙江"}, {"code": "330226", "longi": 121.429477, "lati": 29.287939, "county": "宁海县", "city": "宁波", "province": "浙江"}, {"code": "330281", "longi": 121.154634, "lati": 30.037192, "county": "余姚市", "city": "宁波", "province": "浙江"}, {"code": "330282", "longi": 121.266579, "lati": 30.169665, "county": "慈溪市", "city": "宁波", "province": "浙江"}, {"code": "330283", "longi": 121.406995, "lati": 29.655143, "county": "奉化市", "city": "宁波", "province": "浙江"}, {"code": "330302", "longi": 120.655135, "lati": 28.015455, "county": "鹿城区", "city": "温州", "province": "浙江"}, {"code": "330303", "longi": 120.811213, "lati": 27.932747, "county": "龙湾区", "city": "温州", "province": "浙江"}, {"code": "330304", "longi": 120.61491, "lati": 27.966844, "county": "瓯海区", "city": "温州", "province": "浙江"}, {"code": "330305", "longi": 121.157249, "lati": 27.836154, "county": "洞头区", "city": "温州", "province": "浙江"}, {"code": "330324", "longi": 120.682144, "lati": 28.150591, "county": "永嘉县", "city": "温州", "province": "浙江"}, {"code": "330326", "longi": 120.565793, "lati": 27.661918, "county": "平阳县", "city": "温州", "province": "浙江"}, {"code": "330327", "longi": 120.425766, "lati": 27.51828, "county": "苍南县", "city": "温州", "province": "浙江"}, {"code": "330328", "longi": 120.091498, "lati": 27.786996, "county": "文成县", "city": "温州", "province": "浙江"}, {"code": "330329", "longi": 119.717649, "lati": 27.556884, "county": "泰顺县", "city": "温州", "province": "浙江"}, {"code": "330381", "longi": 120.655148, "lati": 27.778657, "county": "瑞安市", "city": "温州", "province": "浙江"}, {"code": "330382", "longi": 120.967147, "lati": 28.116083, "county": "乐清市", "city": "温州", "province": "浙江"}, {"code": "330402", "longi": 120.783025, "lati": 30.747842, "county": "南湖区", "city": "嘉兴", "province": "浙江"}, {"code": "330411", "longi": 120.709018, "lati": 30.765168, "county": "秀洲区", "city": "嘉兴", "province": "浙江"}, {"code": "330421", "longi": 120.92585, "lati": 30.830898, "county": "嘉善县", "city": "嘉兴", "province": "浙江"}, {"code": "330424", "longi": 120.946263, "lati": 30.526436, "county": "海盐县", "city": "嘉兴", "province": "浙江"}, {"code": "330481", "longi": 120.680757, "lati": 30.510659, "county": "海宁市", "city": "嘉兴", "province": "浙江"}, {"code": "330482", "longi": 121.015142, "lati": 30.677233, "county": "平湖市", "city": "嘉兴", "province": "浙江"}, {"code": "330483", "longi": 120.565099, "lati": 30.630173, "county": "桐乡市", "city": "嘉兴", "province": "浙江"}, {"code": "330502", "longi": 120.185838, "lati": 30.857151, "county": "吴兴区", "city": "湖州", "province": "浙江"}, {"code": "330503", "longi": 120.418512, "lati": 30.84969, "county": "南浔区", "city": "湖州", "province": "浙江"}, {"code": "330521", "longi": 119.977401, "lati": 30.54251, "county": "德清县", "city": "湖州", "province": "浙江"}, {"code": "330522", "longi": 119.910952, "lati": 31.026666, "county": "长兴县", "city": "湖州", "province": "浙江"}, {"code": "330523", "longi": 119.680353, "lati": 30.638675, "county": "安吉县", "city": "湖州", "province": "浙江"}, {"code": "330602", "longi": 120.582633, "lati": 29.988245, "county": "越城区", "city": "绍兴", "province": "浙江"}, {"code": "330603", "longi": 120.495065, "lati": 30.081942, "county": "柯桥区", "city": "绍兴", "province": "浙江"}, {"code": "330604", "longi": 120.868122, "lati": 30.033121, "county": "上虞区", "city": "绍兴", "province": "浙江"}, {"code": "330624", "longi": 120.903866, "lati": 29.499832, "county": "新昌县", "city": "绍兴", "province": "浙江"}, {"code": "330681", "longi": 120.246863, "lati": 29.708692, "county": "诸暨市", "city": "绍兴", "province": "浙江"}, {"code": "330683", "longi": 120.831025, "lati": 29.56141, "county": "嵊州市", "city": "绍兴", "province": "浙江"}, {"code": "330702", "longi": 119.571633, "lati": 29.086221, "county": "婺城区", "city": "金华", "province": "浙江"}, {"code": "330703", "longi": 119.692812, "lati": 29.099126, "county": "金东区", "city": "金华", "province": "浙江"}, {"code": "330723", "longi": 119.816318, "lati": 28.892721, "county": "武义县", "city": "金华", "province": "浙江"}, {"code": "330726", "longi": 119.892222, "lati": 29.452477, "county": "浦江县", "city": "金华", "province": "浙江"}, {"code": "330727", "longi": 120.450178, "lati": 29.054048, "county": "磐安县", "city": "金华", "province": "浙江"}, {"code": "330781", "longi": 119.460526, "lati": 29.208919, "county": "兰溪市", "city": "金华", "province": "浙江"}, {"code": "330782", "longi": 120.075058, "lati": 29.306841, "county": "义乌市", "city": "金华", "province": "浙江"}, {"code": "330783", "longi": 120.241566, "lati": 29.289648, "county": "东阳市", "city": "金华", "province": "浙江"}, {"code": "330784", "longi": 120.047651, "lati": 28.888555, "county": "永康市", "city": "金华", "province": "浙江"}, {"code": "330802", "longi": 118.871333, "lati": 28.968504, "county": "柯城区", "city": "衢州", "province": "浙江"}, {"code": "330803", "longi": 118.95946, "lati": 28.97978, "county": "衢江区", "city": "衢州", "province": "浙江"}, {"code": "330822", "longi": 118.511287, "lati": 28.901343, "county": "常山县", "city": "衢州", "province": "浙江"}, {"code": "330824", "longi": 118.415495, "lati": 29.137337, "county": "开化县", "city": "衢州", "province": "浙江"}, {"code": "330825", "longi": 119.172304, "lati": 29.028319, "county": "龙游县", "city": "衢州", "province": "浙江"}, {"code": "330881", "longi": 118.626974, "lati": 28.737223, "county": "江山市", "city": "衢州", "province": "浙江"}, {"code": "330902", "longi": 122.106773, "lati": 30.019858, "county": "定海区", "city": "舟山", "province": "浙江"}, {"code": "330903", "longi": 122.323867, "lati": 29.97176, "county": "普陀区", "city": "舟山", "province": "浙江"}, {"code": "330921", "longi": 122.226237, "lati": 30.264139, "county": "岱山县", "city": "舟山", "province": "浙江"}, {"code": "330922", "longi": 122.451382, "lati": 30.725686, "county": "嵊泗县", "city": "舟山", "province": "浙江"}, {"code": "331002", "longi": 121.442676, "lati": 28.673726, "county": "椒江区", "city": "台州", "province": "浙江"}, {"code": "331003", "longi": 121.261893, "lati": 28.650117, "county": "黄岩区", "city": "台州", "province": "浙江"}, {"code": "331004", "longi": 121.365123, "lati": 28.582655, "county": "路桥区", "city": "台州", "province": "浙江"}, {"code": "331021", "longi": 121.231805, "lati": 28.13593, "county": "玉环县", "city": "台州", "province": "浙江"}, {"code": "331022", "longi": 121.395777, "lati": 29.104873, "county": "三门县", "city": "台州", "province": "浙江"}, {"code": "331023", "longi": 121.006725, "lati": 29.144079, "county": "天台县", "city": "台州", "province": "浙江"}, {"code": "331024", "longi": 120.728802, "lati": 28.846966, "county": "仙居县", "city": "台州", "province": "浙江"}, {"code": "331081", "longi": 121.385604, "lati": 28.372506, "county": "温岭市", "city": "台州", "province": "浙江"}, {"code": "331082", "longi": 121.145047, "lati": 28.858457, "county": "临海市", "city": "台州", "province": "浙江"}, {"code": "331102", "longi": 119.912612, "lati": 28.445836, "county": "莲都区", "city": "丽水", "province": "浙江"}, {"code": "331121", "longi": 119.922796, "lati": 28.46763, "county": "青田县", "city": "丽水", "province": "浙江"}, {"code": "331122", "longi": 120.091573, "lati": 28.659279, "county": "缙云县", "city": "丽水", "province": "浙江"}, {"code": "331123", "longi": 119.276104, "lati": 28.592119, "county": "遂昌县", "city": "丽水", "province": "浙江"}, {"code": "331124", "longi": 119.482015, "lati": 28.449171, "county": "松阳县", "city": "丽水", "province": "浙江"}, {"code": "331125", "longi": 119.573397, "lati": 28.11579, "county": "云和县", "city": "丽水", "province": "浙江"},